id,NAME,host id,host_identity_verified,host name,neighbourhood group,neighbourhood,lat,long,country,country code,instant_bookable,cancellation_policy,room type,Construction year,price,service fee,minimum nights,number of reviews,last review,reviews per month,review rate number,calculated host listings count,availability 365,house_rules,license
15784750,2B Private Rm in Guesthouse Manhattan,33249639488,unconfirmed,Bobi,Manhattan,East Harlem,40.8068,-73.93932,United States,US,True,strict,Private room,2020.0,$584 ,$117 ,1.0,84.0,6/11/2019,3.97,3.0,10.0,347.0,"No loud music after 10pm. Absolutely no smoking or pets. If there is other evidence of smoking or pets in the property, you will forfeit your entire security deposit. Check in and check out time can be flexible depending upon the dates you are looking for and whether anyone else is staying. Unless we arrange otherwise, check in is after 4pm and check out is before noon. The cleaning fee covers two hours. If additional cleaning is required, you will be charged $50/hour, deducted from your deposit. No parties. If a neighbor complains about a party happening or loud music after 10pm, or if there is a big mess left at the place, you will forfeit your entire deposit. Your internet usage will be logged and monitored if you access a blacklisted site or ip range. Please don't abuse the connection speed by downloading illegal content while a guest. You agree to follow all of the rules of the building, which will be provided. Any issues with not following the building rules and you forfeit your ",
51124218,Cozy room in MASSIVE bushwick house,38391636279,unconfirmed,Jared,Brooklyn,Bushwick,40.68863,-73.90874,United States,US,True,strict,Private room,2020.0,"$1,178 ",$236 ,1.0,1.0,1/1/2017,0.03,5.0,1.0,66.0,,
19658030,Big Apple Slice of History with Breakfast Included,12397252856,unconfirmed,Carmen,Manhattan,East Village,40.72493,-73.97571,United States,US,True,flexible,Private room,2016.0,$913 ,$183 ,2.0,26.0,6/19/2019,2.23,5.0,1.0,118.0,"Are we allowed to drive the boats? All of our boats are in-slip rentals, and can't be taken out. Many of our rental locations have charter services available in the same marina, and we can get you information regarding these services if you desire an excursion. How safe is the location? The boats are in very safe locations. There are gates for entrance, and a fully staffed office looking after the marina. Each boat can be secured while you are on board, or if you are away for the day. The parking is all in well lit and maintained lots. Do I need to bring my car, and where do I park? We recognize the hassle of traveling with a car within cities. We try to select marinas that are convenient for car-free exploring. Most of our locations are within walking distance to major tourist sites, and also have an abundance of public transportation options. If you do need to drive to the marina, we can provide you with information for finding a parking spot convenient to the marina and boat.  Do th",
55596191,SPECTACULAR 2br high floor (Website hidden by Airbnb) view,32645248443,unconfirmed,Labeat,Manhattan,Hell's Kitchen,40.76485,-73.98525,United States,US,False,strict,Entire home/apt,2021.0,$317 ,$63 ,3.0,1.0,4/28/2019,0.42,2.0,1.0,188.0,We ask that guests be respectful and considerate of the family members who live in the home. NO smoking or pets please.,
35435032,Large hideaway private room with couch!,65217643448,verified,,Brooklyn,Cypress Hills,40.68125,-73.88614,United States,US,False,strict,Private room,2020.0,$147 ,$29 ,30.0,1.0,11/18/2021,0.22,3.0,45.0,179.0,,
47703824,Updated Midtown East 2 Bedroom 3 Beds,59891217995,unconfirmed,Corporate Housing,Manhattan,Midtown,40.75605,-73.96503,United States,US,True,strict,Entire home/apt,2012.0,"$1,177 ",$235 ,30.0,0.0,,,2.0,91.0,89.0,"• Check-in time is 4PM. As me and my roommates are students, we often need to concentrate and study at home, what requires the environment to be quiet and silent. We like to party on the weekends though!",
4315136,Great room in a 2 BD apartment,64007712161,verified,Waleed,Queens,Ditmars Steinway,40.77431,-73.9114,United States,US,False,moderate,Private room,2011.0,"$1,110 ",$222 ,1.0,4.0,5/26/2019,1.85,5.0,1.0,298.0,,
43455532,Two BDRM Perfect CHTWN Manhattan!,76586868677,unconfirmed,Karline,Manhattan,Two Bridges,40.71165,-73.9993,United States,US,True,strict,Entire home/apt,2003.0,$351 ,$70 ,1.0,59.0,4/20/2019,1.82,5.0,1.0,88.0,#NAME?,
37964566,Habitación cama doble confortable tv.baño privado.,8107773080,verified,Sandra,Queens,East Elmhurst,40.77046,-73.87237,United States,US,False,moderate,Private room,2017.0,"$1,132 ",$226 ,3.0,12.0,8/29/2020,0.4,3.0,4.0,0.0,,
15531797,"Best Artist's fun loft in Williamsburg, mins 2 NYC",41464540258,unconfirmed,Leonor And Luca,Brooklyn,Williamsburg,40.71416,-73.95357,United States,US,True,strict,Entire home/apt,2003.0,$819 ,$164 ,2.0,7.0,5/31/2019,0.33,4.0,1.0,37.0,"No smoking in apartment, in building or within 50 feet of entrance.  No pets.  Quiet and respectful of our neighbors.",
4701746,Amazing Artist Loft,33399153549,unconfirmed,Tanda,Brooklyn,South Slope,40.66442,-73.99047,United States,US,True,moderate,Entire home/apt,2018.0,$100 ,$20 ,2.0,8.0,6/16/2019,0.23,3.0,3.0,59.0,Smoking is strictly prohibited. Your pets are welcome but please mind them. NO PARTIES ALLOWED.  EXCESSIVE NOISE IS STRICTLY PROHIBITED,
44467346,Awesome Apartment in the E Village!,25164164527,unconfirmed,Wilson,Manhattan,East Village,40.72759,-73.98619,United States,US,False,flexible,Entire home/apt,2008.0,$995 ,$199 ,1.0,31.0,6/30/2019,1.14,5.0,1.0,1.0,"Free WiFi! * No smoking anywhere on property. *No out-door shoes to be worn in the house. We ask that guests be willing to be considerate and quiet while coming and going from 10 pm to 6 am, please. This is a non-smoking property. There is no smoking anywhere on the property, inside nor on the porch. We also ask guests to bring inside shoes/slippers. Thank you. As this is our home, we request you not to move the furniture nor our belongings around and to treat our home as you would wish your home to be treated. Thank you.",
36740669,Newly Renovated Artist Loft 1 Bedroom Apt LES #2,11921268859,verified,Karen,Manhattan,Lower East Side,40.72095,-73.99277,United States,US,False,strict,Entire home/apt,2005.0,"$1,051 ",$210 ,30.0,1.0,8/1/2021,0.14,2.0,208.0,248.0,,
24206773,Central Bushwick Private Bedroom,11383875158,verified,Jessica,Brooklyn,Bushwick,40.69504,-73.9264,United States,US,True,flexible,Private room,2018.0,$459 ,$92 ,2.0,5.0,6/10/2019,1.55,5.0,1.0,9.0,,
32475808,Charming Tribeca Keyed Elevator loft,16037744147,unconfirmed,Kay,Manhattan,Tribeca,40.7152,-74.00733,United States,US,False,moderate,Entire home/apt,2014.0,$863 ,$173 ,3.0,11.0,1/17/2022,0.39,3.0,1.0,42.0,,
32708327,Spacious and EASY access to all!,12632407311,verified,Nate,Brooklyn,Prospect-Lefferts Gardens,40.66014,-73.9614,United States,US,False,strict,Entire home/apt,2005.0,$113 ,$23 ,30.0,61.0,1/12/2022,0.57,3.0,1.0,250.0,,
17031844,Millions of View Luxury Apartment In Manhattan,84945144529,verified,Echo,Manhattan,Chelsea,40.75271,-73.99573,United States,US,True,moderate,Entire home/apt,2022.0,$68 ,$14 ,3.0,0.0,,,2.0,1.0,0.0,"I feel very responsible and accountable for your needs and comfort while you stay at my home... I will go above and beyond for you!  That being said -- I do not charge hotel pricing for a reason. Hotels allow for 24 hour on call service, if you lock yourself out or are having trouble with something... a hotel front desk can help immediately. Your $300 a night for a hotel in Boston covers that.... I am charging almost a 10th of that for this room. I have my own business, clients, and social obligations to attend to. If you lock yourself out or have some other issue, of course I will come help you, but its important to understand that it will not be immediate. I will do my best to get back to the house as quickly as possible. ***IMPORTANT** I'd rather save you all the money and trust you to be independent / responsible guests... than to charge you for my 24 hour support! So please -- keep your keys on hand and in sight, keep the room clean, and maintain healthy choices while in my space ",
25479824,Luxury Soho Executive Suite,97988035473,verified,Corporate Housing,Manhattan,Little Italy,40.7191,-73.99671,United States,US,False,flexible,Entire home/apt,2013.0,$134 ,$27 ,30.0,0.0,,,4.0,91.0,312.0,#NAME?,
4679654,Morning Side Heights Private Room,359986989,unconfirmed,Nick,Manhattan,Harlem,40.81004,-73.95231,United States,US,False,strict,Private room,2005.0,$710 ,$142 ,1.0,1.0,1/3/2015,0.02,4.0,1.0,101.0,,
18357364,"A cozy private room, close to Columbia!",13796043396,verified,Minami,Manhattan,Morningside Heights,40.80868,-73.95801,United States,US,True,strict,Private room,2006.0,$792 ,$158 ,4.0,2.0,8/17/2018,0.16,5.0,1.0,0.0,,
53616196,NYC Hideaway Urban Suite,84524847368,unconfirmed,Christopher,Bronx,Pelham Bay,40.85519,-73.82932,United States,US,True,moderate,Entire home/apt,2005.0,$647 ,$129 ,2.0,2.0,10/9/2018,0.19,3.0,3.0,313.0,No smoking in the building no partying in building ,
43093224,Spacious 1 Bdrm in Queens w Manhattan views,50945624920,unconfirmed,Ali,Queens,Maspeth,40.73834,-73.90774,United States,US,True,strict,Private room,2003.0,$74 ,$15 ,1.0,1.0,9/26/2016,0.03,3.0,1.0,0.0,It's a quiet building on a quiet street with many working professionals. Please be respectful of our neighbors and no additional guests or parties. No Smoking. No Pets.,
40344427,Flat Iron 2BD Beautiful Apt,5058621293,unconfirmed,Krista,Manhattan,Flatiron District,40.74107,-73.98487,United States,US,True,flexible,Entire home/apt,2003.0,$605 ,$121 ,1.0,0.0,,,1.0,1.0,0.0,,
16592765,Luxury Modern Apartment by Central Park,13029166291,verified,Musa,Manhattan,Harlem,40.8029,-73.95576,United States,US,True,flexible,Entire home/apt,2007.0,$298 ,$60 ,3.0,1.0,12/8/2017,0.05,2.0,1.0,0.0,"Please Note: This unit was just gut-renovated in May 2015 and it comfortably accommodates 8 guests (two guests in each bedroom and/or guest(s) on the available air mattresses). Please request an air mattress (if needed) when making a reservation. No smoking, no pets, no parties, and must be 25 years old to book.   For check-out, please ensure: -  All plates and cups are left in the sink or dishwasher -  All trash is left in the kitchen trash can or bagged and left next to the trash can (additional bags are under the sink) -  All windows are closed and locked -  If used, the air mattresses are deflated and put away (please leave used linens for the air mattresses on the floor) -  If furniture was moved during your stay, please return to its original location Please be mindful to our neighbors in the building; quiet hours after 10pm. Please be considerate of our next guests who will be staying after you, if something is broken or needs fixing, please let me know, as I have an arsenal of ",
14494025,Garden Master Bedroom in Crown Heights,98032165678,verified,Yan,Brooklyn,Crown Heights,40.67021,-73.92368,United States,US,True,flexible,Private room,2014.0,,$81 ,1.0,49.0,6/3/2019,2.02,1.0,12.0,51.0,,
6490646,"Beautiful, large and sunny bedroom",28446714401,verified,Dani,Brooklyn,Bedford-Stuyvesant,40.68847,-73.95634,United States,US,True,strict,Private room,2010.0,$596 ,$119 ,1.0,0.0,,,4.0,1.0,179.0,,
42565225,Big private room,56130232508,verified,Sercan,Queens,Rego Park,40.72407,-73.86585,United States,US,True,flexible,Private room,2005.0,$813 ,$163 ,4.0,0.0,,,2.0,1.0,365.0,,
47329365,"Bumble of Brooklyn, Large space",53048968624,unconfirmed,Victoria,Queens,Ridgewood,40.6999,-73.90059,United States,US,False,flexible,Private room,2006.0,$636 ,$127 ,3.0,2.0,1/4/2018,0.11,4.0,1.0,0.0,,
40981781,Large Private Room in Williamsburg,28192774759,verified,Marie,Brooklyn,Williamsburg,40.71061,-73.94971,United States,US,True,strict,Private room,2015.0,$695 ,$139 ,1.0,40.0,10/1/2018,0.87,3.0,1.0,125.0,,
51097708,Room for one or two in  beautiful Midwood,31715215224,unconfirmed,Beth,Brooklyn,Midwood,40.62066,-73.95378,United States,US,True,flexible,Private room,2005.0,$900 ,$180 ,2.0,56.0,5/26/2019,1.83,5.0,2.0,42.0,I do not allow guests with pets. Smoking is allowed on the patio or outdoors. Please be kind to the environment and recycle. Also turn  all unnecessary lights off when not in use. All beds need to be stripped upon departure. Sanitary napkins need to be disposed of properly (taken outside to the trash) not in the bathroom garbage. The suite has a separate sitting area with leather couch not to be used as second bedroom.  Guest must have a mobile device which makes and receives calls and or text messages.,
38490908,LUXURY 2 BEDS 2 BATHS - SUTTON PLACE,36191781595,verified,Ash,Manhattan,Midtown,40.75597,-73.96421,United States,US,False,strict,Entire home/apt,2019.0,$66 ,$13 ,30.0,2.0,3/11/2020,0.08,2.0,13.0,339.0,,
35500756,"2 bed room penthouse best location,work pace",15299188654,verified,Fabienne,Manhattan,Kips Bay,40.7412,-73.98347,United States,US,True,strict,Entire home/apt,2016.0,$632 ,$126 ,30.0,1.0,11/14/2021,0.27,4.0,4.0,340.0,,
31249702,UNTITLED at Freeman - Queen Studio 917,76795758854,unconfirmed,Karen,Manhattan,Lower East Side,40.7213,-73.99363,United States,US,True,strict,Entire home/apt,2007.0,$87 ,$17 ,2.0,22.0,2/12/2022,3.38,3.0,208.0,144.0,,
19278048,Large room with a view in the heart of NYC 31C2,39815325998,verified,John,Manhattan,Hell's Kitchen,40.75587,-73.99724,United States,US,False,moderate,Private room,2019.0,$485 ,$97 ,7.0,5.0,5/20/2019,0.53,4.0,47.0,356.0,"In order to provide a healthy, comfortable and safe environment, the following are the rules of my house. It is your responsibility to not only read these rules once, but to be aware of and follow all of them throughout your stay at my home. Most of what follows is common sense or common courtesy. The rules serve to protect you as a guest by helping ensure that the environment you find here is the one that I intended to create. Please keep in mind:  You will be sharing common areas with other guests or residents, and thus the cleanliness of the common areas is far more dependent upon all guests cleaning up after themselves, than it is upon my once a week cleaning. Most guests do very well in keeping common areas clean! House rules: Please do not drag luggage up the front stairs. Please leave things as they are in your room: do not remove pictures from walls, don't move furniture around, and do not remove mattress protector from the mattress. Also, it should not be necessary to say, but",
14703347,"perfect place for tourist, near subway, restaurant",33671558951,verified,Ayodeji,Manhattan,Harlem,40.81745,-73.94203,United States,US,True,flexible,Private room,2012.0,"$1,160 ",$232 ,1.0,6.0,10/8/2017,0.25,3.0,2.0,0.0,"Please pick up after yourself (remove hair after taking a shower/shaving, etc.), and make sure things are left tidy after you used bathrooms. Keep toilet seat closed so cat can't get to water. Please avoid morning rush between 6am and 10 am and take shower at night (unless you shower is literally 2 min or less). Additional toilet/sink on the first floor. Always wipe off toothpaste from sink and faucet as a courtesy to others.  Immediately notify me if something was broken or out of order or you forgot to wash a plate. Don't leave any food in your room. Proper trash disposal: recycling is very important. Rinse containers before placing into collection; all food leftovers must go inside kitchen sink for disposal. Avoid bringing in plastic bags, but if you must occasionally, please place into recycling for bags under the sink. Please tidy up  your room after departure and take care of dirty dishes. Departure after check out time billed one hundred dollars Mailing address is NOT TO be shar",
33012644,Central Park and You,73916442106,verified,Richard,Manhattan,Upper West Side,40.79903,-73.95926,United States,US,True,moderate,Private room,2008.0,$912 ,$182 ,2.0,5.0,1/6/2022,1.7,4.0,56.0,200.0,,
26768340,Dazzling Large 3 Bedroom Just Minutes To Manhattan,98362660489,unconfirmed,Theo,Queens,Astoria,40.75875,-73.92048,United States,US,True,flexible,Entire home/apt,2012.0,$199 ,$40 ,2.0,2.0,7/1/2019,2.0,5.0,1.0,279.0,Rules are to respect everyone in the home and keep the place clean as is found.,
23490992,Central Park - Comfy King Room,79687172692,verified,Gabriel,Manhattan,Hell's Kitchen,40.75504,-73.99716,United States,US,True,moderate,Private room,2003.0,$483 ,$97 ,1.0,3.0,5/9/2019,0.89,3.0,30.0,360.0,No Smoking,
12600188,Private room with private entrance in Greenpoint!,38589734785,unconfirmed,Marie,Brooklyn,Greenpoint,40.73824,-73.9537,United States,US,False,flexible,Private room,2013.0,$119 ,$24 ,2.0,6.0,5/18/2019,0.27,2.0,1.0,364.0,"Please treat my home as if it were your own. Be respectful of me, my cleaning lady,and anyone you may encounter in the building. No smoking (indoors or on the balcony). Please clean up after yourself, especially in the bathroom. Upon leaving, please put your trash in the chute and strip the linens off the bed. If you have any questions, please ask me.",
18698685,"Cozy, tranquil bedroom steps from Central Park B",19497949211,unconfirmed,Rachel,Manhattan,Upper West Side,40.78371,-73.97358,United States,US,True,flexible,Private room,2003.0,$911 ,$182 ,20.0,5.0,3/25/2019,0.39,3.0,2.0,64.0,"-Our one golden rule is: Please treat our space with respect (i.e. Clean up after yourself, be sure to lock the door when you leave, etc.)  -Absolutely NO SMOKING!!!! -We are fun-loving people, so we dont mind you having some friends over, but the above rule applies twofold in that scenario. -You're welcome to use dishes, appliances, etc in the kitchen, but we ask that you buy your own food/drinks rather than use ours. -No pets allowed (not our rule, our landlord's) -Upon checkout, please turn A/C units and lights off before leaving. -Feel free to ask us about the area-- we know it well and love to recommend!",
52458575,Cozy 2,13655681997,verified,John,Brooklyn,East New York,40.66122,-73.88672,United States,US,False,strict,Private room,2022.0,$151 ,$30 ,3.0,23.0,5/27/2019,1.37,4.0,13.0,90.0,"Please keep as clean as you can.  Please no shoes in the house.  Absolutely no smoking.  Also, the building association does not allow pets.",
17527257,CHIC & LARGE private bedroom in fancy neighborhood,73278034462,verified,Carolle,Manhattan,Midtown,40.74422,-73.98473,United States,US,True,strict,Private room,2004.0,$500 ,$100 ,2.0,29.0,5/15/2019,1.67,2.0,2.0,74.0,• Check-in time is 3PM.,
52020601,Private room with Amazing views of Manhattan.,46578109947,unconfirmed,Amber,Brooklyn,Greenpoint,40.73477,-73.95541,United States,US,True,strict,Private room,2012.0,$525 ,$105 ,2.0,6.0,3/4/2019,0.33,3.0,1.0,0.0,Absolutely no smoking or pets.,
35554881,The People's Brownstone,13179680663,unconfirmed,Carol Ann,Manhattan,Harlem,40.81422,-73.94513,United States,US,True,strict,Entire home/apt,2015.0,$832 ,$166 ,3.0,6.0,11/8/2021,0.42,2.0,2.0,89.0,,
4069363,Couch in times square,80176614259,verified,Lisa,Manhattan,Theater District,40.75974,-73.9866,United States,US,True,moderate,Shared room,2015.0,$622 ,$124 ,2.0,58.0,6/1/2019,0.99,4.0,1.0,377.0,No Smoking No Pets,
29145439,2 N. Y. C. Manhattan. U. W. S. שומר שבת for male,52614711966,verified,Moshe,Manhattan,Upper West Side,40.78526,-73.97456,United States,US,True,flexible,Private room,2022.0,$851 ,$170 ,2.0,13.0,2/27/2022,1.65,2.0,2.0,89.0,,
17212446,Stellar Crown Heights Location! (Private Bdrm),39755532569,verified,Kate,Brooklyn,Crown Heights,40.67632,-73.95535,United States,US,False,strict,Private room,2004.0,"$1,188 ",$238 ,4.0,0.0,,,4.0,1.0,0.0,Absolutely no parties are permitted. The apartment is in a multi-unit building so guests must be respectful of other tenants in the building.,
29463564,"Beautiful brand new room, close to times square",53019038478,unconfirmed,Adrian,Manhattan,Hell's Kitchen,40.76631,-73.99177,United States,US,True,flexible,Private room,2013.0,$740 ,$148 ,4.0,68.0,2/26/2022,5.22,4.0,2.0,274.0,,
57154229,Chelsea/Union Square cozy studio,41804141907,verified,Alejandro,Manhattan,Chelsea,40.73958,-73.9975,United States,US,False,flexible,Entire home/apt,2010.0,$406 ,$81 ,2.0,1.0,6/25/2017,0.04,3.0,1.0,0.0,We ask that guests be respectful as there are others living in the home. NO smoking or pets please.,
20311953,Gorgeous 1 Bedroom on the Park,1822651645,verified,Woods,Brooklyn,Fort Greene,40.69028,-73.97484,United States,US,True,strict,Entire home/apt,2012.0,$937 ,$187 ,3.0,16.0,6/24/2019,1.63,5.0,1.0,0.0,No smoking.  No guests without previous discussion with host.,
37093036,Amazing  3BR 1 Bath near central park,56005800869,verified,Orly,Manhattan,Upper West Side,40.7946,-73.96844,United States,US,True,flexible,Entire home/apt,2020.0,$986 ,$197 ,30.0,1.0,6/9/2021,0.11,4.0,9.0,336.0,,
43012036,Huge private bedroom in the heart of Times Square,60953842688,unconfirmed,Bianca,Manhattan,Hell's Kitchen,40.76408,-73.98996,United States,US,False,strict,Private room,2018.0,$215 ,$43 ,1.0,98.0,5/12/2019,2.87,3.0,3.0,27.0,,
14718259,Awesome Times Square 1 BR Loft in City Centre,94073602327,verified,Jowelle,Manhattan,Hell's Kitchen,40.76054,-73.99066,United States,US,False,moderate,Entire home/apt,2009.0,$829 ,$166 ,2.0,59.0,6/24/2019,2.52,5.0,5.0,266.0,,
19097446,Beautiful Prewar New York City Apartment!,70497837324,unconfirmed,TaRi,Queens,Astoria,40.76356,-73.92102,United States,US,True,flexible,Entire home/apt,2018.0,$971 ,$194 ,4.0,5.0,9/3/2018,0.44,2.0,1.0,1.0,,
28778160,2 Bedroom in 1897 Landmarked house,80539359271,verified,Missy & Julien,Brooklyn,Crown Heights,40.67492,-73.94729,United States,US,False,strict,Entire home/apt,2016.0,$570 ,$114 ,30.0,68.0,2/28/2022,1.57,3.0,2.0,88.0,,
53520648,Charm and cozy close to NY and La Guardia Airport,27996863574,unconfirmed,Gerusa,Queens,Ditmars Steinway,40.77598,-73.92252,United States,US,False,moderate,Private room,2018.0,$598 ,$120 ,2.0,25.0,5/19/2019,1.83,3.0,1.0,4.0,,
3386167,"UWS Large clean 1Br entire apt, 2 stops fromTiMESQ",18585812848,verified,Patricia,Manhattan,Upper West Side,40.79972,-73.96418,United States,US,True,flexible,Entire home/apt,2003.0,$579 ,$116 ,10.0,6.0,6/29/2016,0.1,4.0,1.0,277.0,Please leave the studio in the condition as in arrival. Please turn off lights and heat/air when exiting. Please lock both top and bottom locks. Please feel free to call or text me with questions or concerns.,
33673195,The Blue Velvet Underground.,10381507083,verified,Steve,Brooklyn,Bushwick,40.701,-73.91855,United States,US,False,moderate,Private room,2020.0,$856 ,$171 ,1.0,8.0,1/2/2022,1.88,4.0,5.0,67.0,,
14195783,A Brooklyn retreat. 25M subway to the city.,35154190085,verified,Jen,Brooklyn,Bedford-Stuyvesant,40.68203,-73.92472,United States,US,True,strict,Private room,2017.0,$265 ,$53 ,2.0,,5/19/2019,0.52,4.0,1.0,179.0,,
1803828,"Comfortable, clean & quiet in EV",17950404086,unconfirmed,Casper,Manhattan,Gramercy,40.73337,-73.984,United States,US,False,flexible,Private room,2009.0,$686 ,$137 ,1.0,323.0,6/20/2019,3.89,4.0,1.0,181.0,"NO smoking, no pets, all guests must be disclosed. ",
37878407,Centrally located clean shared room byTimes Square,12078497264,verified,Michael,Manhattan,Hell's Kitchen,40.76595,-73.98561,United States,US,True,strict,Shared room,2012.0,"$1,108 ",$222 ,30.0,1.0,9/24/2020,0.05,3.0,5.0,0.0,,
24802705,★Single Room in Backpackers Accommodation★,29691697810,unconfirmed,International,Brooklyn,Williamsburg,40.70908,-73.95663,United States,US,False,moderate,Private room,2012.0,"$1,001 ",$200 ,1.0,14.0,6/23/2019,4.47,2.0,1.0,295.0,You will be very comfortable in our home but we ask that guests are respectful of the artwork that we have as we want to keep the place a fun place to hang out!  Please no smoking.,
25089348,Luxury 3 Bed FiDi Charm Doorman Elevator | Laundry,69102494416,verified,James,Manhattan,Financial District,40.70563,-74.00919,United States,US,True,strict,Entire home/apt,2016.0,$106 ,$21 ,5.0,7.0,6/9/2019,2.84,2.0,1.0,131.0,,
4284760,Spacious 3-room apt. in prime area of Brooklyn.,92655894652,unconfirmed,Peter,Brooklyn,Greenpoint,40.72623,-73.94298,United States,US,True,strict,Entire home/apt,2011.0,$303 ,$61 ,5.0,26.0,5/6/2019,1.16,2.0,1.0,238.0,May add extra guests (please contact for more info),
10023157,Brighton Beach Studio Half Block From the Ocean,41147067258,verified,Eli,Brooklyn,Brighton Beach,40.57509,-73.96603,United States,US,True,strict,Entire home/apt,2004.0,$394 ,$79 ,1.0,1.0,6/5/2016,0.03,5.0,1.0,224.0,,
27300205,Luxury 5 Bedroom | 3 Bathroom South Street Seaport,14078942538,verified,Gabrielle And Steven,Manhattan,Financial District,40.70662,-74.00258,United States,US,True,strict,Entire home/apt,2012.0,"$1,013 ",$203 ,3.0,0.0,,,3.0,1.0,352.0,A residential building. Quiet is important. No smoking. No Pets.,
3240360,Union Square - Best NYC location,18790685478,verified,Matteo,Manhattan,East Village,40.73112,-73.98558,United States,US,False,strict,Private room,2003.0,"$1,038 ",$208 ,5.0,109.0,6/22/2019,1.73,4.0,2.0,85.0,,
52512700,"Beautiful, High-Ceiling Apartment in Fort Greene",50420977181,verified,Brad,Brooklyn,Fort Greene,40.69431,-73.97063,United States,US,False,strict,Entire home/apt,2021.0,$730 ,$146 ,1.0,16.0,5/27/2019,1.04,2.0,1.0,14.0,,
49023269,Sunny room in heart of Chinatown,24465718553,unconfirmed,Paul,Manhattan,Chinatown,40.7153,-73.99938,United States,US,False,moderate,Private room,2008.0,$722 ,$144 ,1.0,1.0,10/9/2016,0.03,5.0,2.0,0.0,,
28332454,Seas The Moment,58881383392,verified,Ben,Staten Island,Great Kills,40.54179,-74.14275,United States,US,False,strict,Private room,2022.0,$733 ,$147 ,1.0,1.0,7/7/2019,1.0,2.0,1.0,87.0,,
21023316,Sunny one bedroom renovated apartment,16881268500,unconfirmed,Stephany,Queens,Queens Village,40.72085,-73.7496,United States,US,False,flexible,Entire home/apt,2005.0,$441 ,$88 ,2.0,33.0,6/30/2019,3.6,3.0,1.0,282.0,"No Smoking,  Respect for other guests and neighbors.  Well behaved children only.  Limit noise after 10pm.  Please do dishes/run dishwasher prior to departure.   Parking is available on Linwood and Gardner streets 24 hours.    No parking is permitted on Centre Place.",
28414194,"Modern, Sleek Unit in Harlem",3865690724,verified,,Manhattan,Harlem,40.81818,-73.94066,United States,US,False,flexible,Private room,2008.0,$917 ,$183 ,30.0,2.0,3/3/2022,0.14,3.0,45.0,181.0,,
24654688,Spacious bedroom in Williamsburg,97339381848,unconfirmed,Shana,Brooklyn,Williamsburg,40.71768,-73.94027,United States,US,False,moderate,Private room,2017.0,$315 ,$63 ,1.0,9.0,6/1/2019,2.84,4.0,2.0,22.0,"House Rules 1. Check-in is 4 pm local time. If the unit is ready earlier, we’ll let you know. Check-out is normally 11 am local time, but we’d be happy to extend it as long as we don’t have a cleaning scheduled. Just let us know.  2. All bookings require a security deposit of at least $300, which will be refunded within 7 days of your check-out. 3. For security measures we require all guests to provide proof of identification through ID verification on our own website. In order to check in we'll need a photo of your ID.  4. Our cancellation policy is as shown on our ad and defined by the site you are booking through.  5. Don’t let $300 go up in smoke. There's no smoking allowed in any Flatbook and a $300 fine for breaking this rule.  6. Unfortunately we don’t allow pets in any of our apartments. 7. Unless you’re staying in one of our specialty apartments, we don’t allow parties or excessive noise. 8. If we find the place very messy, we have to charge an extra $40 for every extra hour o",
34119453,Real Fireplace apt right by Central Park,64249065449,verified,Barbara,Manhattan,East Harlem,40.78884,-73.94152,United States,US,True,flexible,Private room,2004.0,$72 ,$14 ,1.0,4.0,12/30/2021,1.56,5.0,2.0,62.0,,
39190120,New York's newest and best hotel!,21293764641,unconfirmed,Bill,Manhattan,Midtown,40.75104,-73.98302,United States,US,False,flexible,Private room,2003.0,$855 ,$171 ,1.0,16.0,1/9/2022,2.58,4.0,23.0,27.0,,
36783196,Charming 1 Bed Plus Office - Upper East NO SMOKING,4916635927,unconfirmed,Andrea,Manhattan,Upper East Side,40.77418,-73.94803,United States,US,True,strict,Entire home/apt,2020.0,$869 ,$174 ,30.0,6.0,7/31/2021,0.21,2.0,1.0,104.0,,
18487154,Brooklyn Home By The Pier,89492539048,verified,Karen,Brooklyn,Canarsie,40.63125,-73.88925,United States,US,True,flexible,Entire home/apt,2015.0,$549 ,$110 ,1.0,28.0,6/30/2019,2.01,4.0,1.0,172.0,- No shoes on carpets and rugs - Eating and Drinking only in Kitchen - Quiet time from 11pm - 6am - No gatherings or parties,
43596369,Great Location by Subway!,25284597627,unconfirmed,Nilu,Brooklyn,Clinton Hill,40.68252,-73.96436,United States,US,True,strict,Entire home/apt,2003.0,$443 ,$89 ,1.0,39.0,6/30/2019,1.25,5.0,1.0,62.0,"House Rules 1. Check-in is 4 pm local time. If the unit is ready earlier, we’ll let you know. Check-out is normally 11 am local time, but we’d be happy to extend it as long as we don’t have a cleaning scheduled. Just let us know.  2. All bookings require a security deposit of at least $300, which will be refunded within 7 days of your check-out. 3. For security measures we require all guests to provide proof of identification through ID verification on our own website. In order to check in we'll need a photo of your ID.  4. Our cancellation policy is as shown on our ad and defined by the site you are booking through.  5. Don’t let $300 go up in smoke. There's no smoking allowed in any Flatbook and a $300 fine for breaking this rule.  6. Unfortunately we don’t allow pets in any of our apartments. 7. Unless you’re staying in one of our specialty apartments, we don’t allow parties or excessive noise. 8. If we find the place very messy, we have to charge an extra $40 for every extra hour o",
38219176,"Comfy Bedroom in Convenient, awesome location!",75827016045,verified,Jean Paul,Brooklyn,Flatbush,40.6522,-73.96164,United States,US,False,strict,Private room,2007.0,"$1,155 ",$231 ,2.0,111.0,4/13/2020,1.9,4.0,2.0,0.0,,
35601274,Art Deco Live / Work Studio in the East Village,86651717881,verified,Jeremy,Manhattan,East Village,40.72715,-73.98643,United States,US,True,flexible,Entire home/apt,2021.0,$352 ,$70 ,75.0,2.0,11/5/2021,0.32,2.0,23.0,187.0,,
44090125,"Private Bedroom in Bushwick, BK",77258113508,verified,Cameron,Brooklyn,Bushwick,40.69487,-73.9263,United States,US,True,moderate,Private room,2016.0,$727 ,$145 ,10.0,0.0,,,1.0,1.0,0.0,"Respect yourself respect others please clean up after yourself. NO smoking, drinking or partying . Lock out is $50 , late check in after 9 Pm and early check in before 9 A.M. is $50, pay upon arrival.",
52455261,Cosy and comfortable 2 Bdrm with Outdoor Space,38112569751,unconfirmed,Ed And Heather,Brooklyn,Bushwick,40.69374,-73.912,United States,US,True,flexible,Entire home/apt,2022.0,$677 ,$135 ,2.0,45.0,6/30/2019,3.98,4.0,1.0,74.0,"Hello there! Please only enter the front door of the building if I have let you in or you have been given the key beforehand.  Please leave the apartment and its contents in the same condition you found it. Please no one in the apartment except the registered guests.  This is a strict one.  Thanks for understanding! Please no eating or drinking on the sofa. (Also, please hand wash any dishes used.) Please walk gently in the apartment and observe quiet hours of 8pm-10am. It is an old building and sound transfers easily.  Definitely no smoking and/or any other ""substances"" on the premises. Sorry, none of the alcohol in the apartment is for guest consumption. Thank you for respecting the property and also my furnishings. This helps me offer nice things for consequent guests! Sorry for the litany of rules, but adhering to these will make everyone happy. I like to keep a calm & clean place. Thank you! Paul",
30891812,The home of love 2,84247749980,unconfirmed,Shu,Brooklyn,Sunset Park,40.64528,-74.00465,United States,US,True,strict,Private room,2014.0,$800 ,$160 ,1.0,34.0,2/14/2022,1.13,3.0,8.0,174.0,,
18517531,SEMI STUDIO IN 2bdrm apt PRIVATE Bath,23318760799,unconfirmed,Mike&Mavi,Manhattan,Harlem,40.82347,-73.95452,United States,US,False,strict,Private room,2004.0,$935 ,$187 ,5.0,4.0,6/1/2019,0.35,4.0,3.0,324.0,#NAME?,
46940545,"$6,500 p/m or short term, 5 Star, LUX, Clean, Big",27747019260,unconfirmed,Hutch,Manhattan,Upper East Side,40.76401,-73.95929,United States,US,True,moderate,Entire home/apt,2016.0,$928 ,$186 ,7.0,29.0,6/29/2019,1.34,3.0,1.0,237.0,"House Rules 1. Check-in is 4 pm local time. If the unit is ready earlier, we’ll let you know. Check-out is normally 11 am local time, but we’d be happy to extend it as long as we don’t have a cleaning scheduled. Just let us know.  2. All bookings require a security deposit of at least $300, which will be refunded within 7 days of your check-out. 3. For security measures we require all guests to provide proof of identification through ID verification on our own website. In order to check in we'll need a photo of your ID.  4. Our cancellation policy is as shown on our ad and defined by the site you are booking through.  5. Don’t let $300 go up in smoke. There's no smoking allowed in any Flatbook and a $300 fine for breaking this rule.  6. Unfortunately we don’t allow pets in any of our apartments. 7. Unless you’re staying in one of our specialty apartments, we don’t allow parties or excessive noise. 8. If we find the place very messy, we have to charge an extra $40 for every extra hour o",
33231355,Private Bdrm/Bathrm. New! Elevator!,63007323905,verified,Irene,Manhattan,East Harlem,40.79128,-73.94125,United States,US,True,strict,Private room,2009.0,"$1,168 ",$234 ,3.0,37.0,1/3/2022,0.27,5.0,1.0,312.0,,
10345700,"3bd apt w/yard in Astoria, 10 mins from Manhattan.",64054498076,unconfirmed,Dayne,Queens,Long Island City,40.75903,-73.92943,United States,US,False,flexible,Entire home/apt,2020.0,$307 ,$61 ,2.0,111.0,7/6/2019,3.18,1.0,1.0,297.0,No Smoking Please leave all things the way you found them.  No pets allowed. We will leave more detailed guidelines in the apartment.,
40856961,Huge Room in Lower East Side Loft,58903853273,verified,Hannes,Manhattan,Lower East Side,40.71846,-73.98672,United States,US,True,strict,Private room,2012.0,$822 ,$164 ,4.0,3.0,12/19/2015,0.06,2.0,1.0,0.0,,
53014189,Prime Williamsburg location- Private bedrm & bath,53572334263,verified,Lauren,Brooklyn,Williamsburg,40.71686,-73.95638,United States,US,False,moderate,Private room,2016.0,$503 ,$101 ,2.0,17.0,6/17/2019,1.15,3.0,1.0,1.0,"Please be respectful of other guests.  Keep the common areas clean and pick up after your self.  No loud music after 10:00PM.  It is a safe neighborhood but please, keep doors locked for safety No smoking in the house (smoking is allowed on the front or back decks).",
38673719,"Room for rent. Quiet, safe.",56274732281,unconfirmed,Wanda,Manhattan,East Village,40.73042,-73.98884,United States,US,False,strict,Private room,2006.0,$86 ,$17 ,30.0,24.0,2/29/2020,0.35,4.0,1.0,0.0,,
49616991,"*Serenity & Heart* spacious, bright, sleeps 4 SOHO",72122444427,verified,J. Cobb,Manhattan,Nolita,40.72148,-73.99543,United States,US,True,strict,Entire home/apt,2011.0,"$1,065 ",$213 ,5.0,150.0,6/29/2019,4.19,3.0,1.0,105.0,"You will be sharing a bathroom, so you must be considerate of time spent in the bathroom in the morning when getting ready. If you use the kitchen, please put the dirty cups, bowls, plates, and silverware in the dirty dishes tub, and hand wash all of the pots, pans, and cooking tools you use. Please clean up any mess you may have made. Remember to turn on the fan when using the stove or oven so the fire alarm does not go off from the steam! Please only smoke outside, away from the apartment building, and dispose of your cigarettes responsibly. Checkout: Checkout is at 11:00 am, please inquire if you would like to check out later or leave your bags with us for the day. If we are not awake/home when you leave, please leave the passes on the desk in your room, lock the front door behind you, and put your keys in the lock box behind the front stair case.",
53885718,5min to JFK! Private Queen Room in New home! R2,12368740814,verified,Johann,Queens,Jamaica,40.69238,-73.80247,United States,US,True,moderate,Private room,2022.0,$924 ,$185 ,1.0,37.0,3/23/2019,2.8,2.0,4.0,297.0,"Leave the apartment as you found it!  If you used dishes or cups or anything in the kitchen area, you are expected to clean, wash, dry and return the item to its origin.   Act respectful in the neighborhood and inside the halls, other units are in the building so act responsible.   We ask that quiet hours be respected between 11pm and 8am.  Meaning no dance parties, loud noises, or other disturbances that are not emergencies.  We understand sometime guest will like to enjoy themselves until the bars close (2am).  We expect you to be courteous once you return to the property, excessive noise and disturbances reported may result in cancellation of your booking immediately without refund and maybe forcibly removed at my or my agents discretion.   No Smoking No Parties No Drugs No Weapons Only People on Reservation permitted to stay in the apartment. Please keep front door locked and closed at all times. You are expected to leave the apartment as you found it, kitchen clean, fridge empty, ",
41184475,*Amazing Lower East Side Apartment*,59761773596,unconfirmed,Zlatko,Manhattan,Lower East Side,40.71978,-73.98424,United States,US,False,moderate,Entire home/apt,2007.0,$714 ,$143 ,2.0,6.0,1/1/2017,0.13,2.0,1.0,0.0,,
4664190,MODERN Luxury Hotel Residence in Midtown,48991856138,unconfirmed,Dee J,Manhattan,Hell's Kitchen,40.7574,-73.99361,United States,US,True,strict,Entire home/apt,2019.0,$456 ,$91 ,6.0,11.0,11/1/2018,0.22,1.0,1.0,387.0,,
36879849,521 West 48th-2 bedroom 1 bath  in Midtown West,57067111270,unconfirmed,Jeniffer,Manhattan,Hell's Kitchen,40.76411,-73.99371,United States,US,False,moderate,Entire home/apt,2005.0,$728 ,$146 ,30.0,7.0,7/17/2021,0.13,2.0,186.0,302.0,,
3930735,Beautiful Sunset Park,12939987142,verified,Kaykay,Brooklyn,Sunset Park,40.64752,-74.0059,United States,US,True,flexible,Shared room,2005.0,$843 ,$169 ,2.0,7.0,5/13/2017,0.12,2.0,1.0,258.0,"All guests must agree to the following:   1. The hallway going up to the penthouse is narrow. Take care not to make marks or scratches from suitcases on the walls. 2. No smoking anywhere on the premises or around the building.  3. The guest must keep the room clean. Please dispose of the garbage can bag upon checkout and leave the used towels and sheets in the white hamper at the foot of the bed.  4. Guests may use the washer and dryer in the basement, but clothes must be immediately removed from machines when done. Make sure to clean the lint tray on the dryer to avoid a risk of fire.  5. No additional guests are allowed to stay past 11:00 PM or sleep over. The room is designed for a single-person use only.  6. When using the bathroom, male guests are asked to sit or keep seats down and to clean the seat after each use. Guests must tidy the shower when done.  7. Guests may NOT place hot pans or cooking items on the marble counters without a trivet. There are two silicone trivets and a",
18176761,"4 Bed, 2 Bath Apt in East Village-Garden Duplex",9998961904,unconfirmed,East Village,Manhattan,East Village,40.72468,-73.98996,United States,US,False,flexible,Entire home/apt,2013.0,$634 ,$127 ,4.0,11.0,7/7/2019,0.75,5.0,4.0,164.0,,
9353769,NYC Midtown West 1 bedroom luxury apartment!,58951552445,verified,Kara,Manhattan,Midtown,40.76571,-73.98312,United States,US,True,flexible,Entire home/apt,2007.0,$56 ,$11 ,30.0,0.0,,,1.0,121.0,294.0,"PARKING Overnight and weekends, you can park on the street right in front of the house (please DO NOT use the neighbor's driveway).  During weekday commuting hours, you can park on Linwood Street.  Street cleaning alternates from one side to the other on Tuesday mornings, so please park on the appropriate side if you're going to leave your car - the signage is good. KITCHEN The occasional coffee mug and pot is fine to leave behind in the sink on your dash to the airport, but we expect that you'll restore dishes and cookware to their originally clean state after use. WIFI The password is basket4210baked NO SMOKING INSIDE Feel free to light up outside, but please dispose of butts properly. QUIET PLEASE The apartment is one of three in the building - the other two are occupied by professional folks who are respectful of their neighbors and the tranquility of the neighborhood.  We expect they'll be treated in kind. HEATING/COOLING Please turn a/c off when not in the apartment. The heat run",
55866266,Lovely Private Garden Apt!,66603538838,verified,Natasha,Brooklyn,Bedford-Stuyvesant,40.68563,-73.92331,United States,US,True,flexible,Entire home/apt,2013.0,"$1,192 ",$238 ,4.0,1.0,10/27/2018,0.12,5.0,4.0,129.0,"Please remember that this is a residential building. The building rules, apartment occupancy restrictions and the year-round tenants must be respected.",
46350137,Private room (cozy and clean) Manhattan NYC,15986617011,unconfirmed,Anna Chiara,Manhattan,East Harlem,40.80356,-73.94034,United States,US,True,strict,Private room,2003.0,$980 ,$196 ,30.0,5.0,5/4/2019,0.24,4.0,4.0,211.0,,
9381384,Brooklyn Summer Haven- Private Room!,48046131733,verified,Ruby,Brooklyn,Bedford-Stuyvesant,40.67988,-73.92687,United States,US,True,strict,Private room,2006.0,$184 ,$37 ,1.0,0.0,,,5.0,1.0,259.0,,
18182837,Couch of your dreams,64448945267,unconfirmed,Yael,Manhattan,Harlem,40.82829,-73.94691,United States,US,True,strict,Shared room,2019.0,$82 ,$16 ,5.0,0.0,,,4.0,2.0,363.0,#NAME?,
1741970,Very close to Downtown Awesome Room,41250040282,unconfirmed,Jeffrey,Brooklyn,Gravesend,40.60399,-73.97092,United States,US,True,moderate,Private room,2004.0,$147 ,$29 ,1.0,61.0,7/6/2019,0.81,2.0,2.0,348.0,,
37753587,Garden View Room - Close to Trains! Brooklyn,37349110047,unconfirmed,Gloria,Brooklyn,Bushwick,40.69491,-73.92316,United States,US,True,strict,Private room,2007.0,$629 ,$126 ,30.0,6.0,11/1/2020,0.15,3.0,2.0,0.0,,
39641901,Duplex with two terraces and a view,4310969764,unconfirmed,Arsenio,Brooklyn,Crown Heights,40.67504,-73.95273,United States,US,False,flexible,Entire home/apt,2019.0,$264 ,$53 ,4.0,6.0,1/2/2019,0.08,3.0,1.0,250.0,,
16051511,Room in Big Apartment Available in Flatbush,95766374239,verified,Juli,Brooklyn,Flatbush,40.65182,-73.95804,United States,US,True,strict,Private room,2020.0,$78 ,$16 ,7.0,0.0,,,5.0,1.0,0.0,,
52978841,Harlem hideout w/ great amenities!,72798789244,verified,Justin,Manhattan,Harlem,40.82599,-73.95289,United States,US,False,strict,Private room,2021.0,$303 ,$61 ,2.0,0.0,,,2.0,3.0,188.0,"We love guests who are respectful, clean up after themselves, and understand that we work from home so although we may be physically present in the home, we might be preoccupied with our work. No smoking or drugs of any kind, even outside. ",
55119004,Beautiful cozy apt by Central Park,20298905557,verified,Abraham,Manhattan,East Harlem,40.79832,-73.94214,United States,US,False,flexible,Shared room,2016.0,$485 ,$97 ,2.0,35.0,5/28/2019,3.23,4.0,9.0,9.0,"- - NO PETS!  NO SMOKING ON PREMISES!  NO PARTY! No ""DRUGS""! - Keep the Place Clean at All Times! - Do Not Ask the ""Neighbors"" for anything.  Ask Me!-  - No Neighbors Interaction! - No ""Drugs"" Please!!! - No Noise! A printed house rule will be provided. Please be respectful to others when all rooms are booked.  10 AM Check-out and Check-in is between 12PM (noon) - 3 PM.   Late check in after 8 pm is $50, lock out is $50. Respect yourself, Respect others, clean up after yourself.  No Smoking/drinking in apt.  Thank You! Location Rules: The ""Exact Address Location Is Not Stockton St.  It Is 2 Streets Away.  It Is Not Disclosed For Security Reasons"" And Is Given Out 24 Hours Prior to Check-in.  If This Is a Problem for You, Please STOP Here And Contact Other Hosts for Your Stay.   This Is a Part Of My House Rules.",
4624424,Heaven On Riverside,50045045139,unconfirmed,Byron,Manhattan,Harlem,40.82332,-73.95471,United States,US,True,moderate,Private room,2008.0,$709 ,$142 ,2.0,16.0,4/30/2019,0.3,1.0,3.0,103.0,,
37579060,AMAZING PRIVATE room located in the HEART of TS !,75957089580,unconfirmed,Millennium Premier,Manhattan,Theater District,40.75775,-73.98332,United States,US,False,moderate,Private room,2020.0,$359 ,$72 ,1.0,1.0,1/1/2021,0.07,3.0,6.0,99.0,,
43579248,Comfy spacious Astoria aptmt 15m from Manhattan,12163964867,verified,Jwanah,Queens,Astoria,40.76248,-73.92422,United States,US,False,moderate,Private room,2018.0,$666 ,$133 ,3.0,0.0,,,1.0,1.0,0.0,,
48069999,Cozy room in Prime Williamsburg,25169260790,verified,Alexis,Brooklyn,Williamsburg,40.71811,-73.95793,United States,US,False,strict,Private room,2014.0,$741 ,$148 ,3.0,3.0,1/16/2017,0.09,2.0,1.0,363.0,"For Your CarYup! IT'S JUST THE PARKING SPACE.  And it's reasonable but not FREE, and not even a bed is included.  No Queen No Real Bed, No Beds at all, but I don't care how few or how many people use the car you park in the space.   I'm writing to AIRBNB's Help Desk, to get them to add OTHER to their ""Room Type"" menu, and to add a choice of 0 beds to the pull down menus.     Parking in Boston's South End is more scarce than Penthouses or Hen's Teeth.  And parking per square foot rents for more than a square foot of air-mattress-for-a-night!  Go To https://www.airbnb.com/rooms/",
50463667,Quiet Homestead,59855181262,verified,Cesar,Brooklyn,Carroll Gardens,40.67844,-74.00028,United States,US,True,moderate,Entire home/apt,2017.0,$468 ,$94 ,7.0,1.0,5/12/2018,0.07,4.0,3.0,50.0,,
1516080,Artist 2BR in Park Slope w/backyard,29237498173,verified,Douglas,Brooklyn,Park Slope,40.67725,-73.9821,United States,US,False,flexible,Entire home/apt,,$460 ,$92 ,30.0,8.0,1/2/2018,0.1,2.0,1.0,106.0,"There is no smoking in any of the house rooms.    Single guests are preferred, but exceptions are made to accommodate 2 people if needed.  The Office Room will only accommodate 1 person.   Every effort is made to insure guest privacy, and quiet, especially during late evening hours.",
23383846,"Private entrance, own bathroom, comfy  & sunshine",65283094813,verified,Walter,Brooklyn,Bushwick,40.69684,-73.9307,United States,US,False,moderate,Entire home/apt,2013.0,$378 ,$76 ,1.0,36.0,7/3/2019,6.1,2.0,4.0,210.0,"Please no parties,  and no loud noise past 11p, out of respect for the neighbors.  Please no smoking inside the building.  If you cook or otherwise eat in the apartment, please reasonably clean up after yourself.",
29974442,Full size bed,20623217443,verified,Latisha,Brooklyn,East New York,40.65752,-73.89313,United States,US,False,flexible,Private room,2005.0,$604 ,$121 ,3.0,27.0,2/21/2022,1.11,4.0,4.0,324.0,,
27075971,Perfect place to stay in Bushwick in a shared room,83106003649,unconfirmed,Sergii,Brooklyn,Bushwick,40.69172,-73.9113,United States,US,False,moderate,Shared room,2013.0,$784 ,$157 ,30.0,0.0,,,2.0,3.0,365.0,,
44338108,Cozy with a private bathroom bklyn,44973091062,unconfirmed,Chadanut,Brooklyn,Kensington,40.64237,-73.98048,United States,US,True,moderate,Private room,2020.0,$504 ,$101 ,1.0,41.0,5/27/2019,1.41,1.0,11.0,22.0,,
46868194,Hideaway Studio,93139868147,unconfirmed,Brian,Bronx,Pelham Bay,40.84711,-73.83039,United States,US,False,moderate,Entire home/apt,2017.0,$756 ,$151 ,2.0,66.0,6/19/2019,3.04,3.0,1.0,56.0,,
19423855,Entire Greenpoint / North Williamsburg Gem,77641050545,verified,Lola,Brooklyn,Greenpoint,40.72756,-73.95628,United States,US,False,flexible,Entire home/apt,2012.0,$141 ,$28 ,3.0,1.0,5/25/2019,0.67,2.0,1.0,36.0,"This is a quiet building and expect not to be disturbed, or to create disturbances.  There is a shared washer and dryer and it is not used after 11pm.  There is absolutely no smoking allowed in the building, on the fire escape or on the front steps.  We prefer that guests be non-smokers.  Guests are not permitted to bring pets, or have visitors with pets.  Bicycles can not be brought into the building.  The City of Boston collects trash two times per week and Guests are expected to observe local trash and re-cycling schedules.  There is a more detailed description available once reservation is completed.",
23346289,"LUXE 1BR+Bath (private) in New, Spacious 2BR",91083676989,unconfirmed,Tabea,Brooklyn,Bushwick,40.69853,-73.93098,United States,US,True,flexible,Private room,2015.0,$180 ,$36 ,10.0,0.0,,,4.0,2.0,0.0,No more than 2 people. I have neighbors above and below and to each side. Please be respectful in avoiding noises that will disturb the neighbors.,
21615381,Modern Private Studio  IN East Flatbush,51343231103,verified,Elen,Brooklyn,East Flatbush,40.64841,-73.94516,United States,US,False,strict,Entire home/apt,2011.0,$969 ,$194 ,1.0,20.0,6/23/2019,2.41,2.0,3.0,290.0,It is a professional building we ask there be no parties or loud noise,
53231795,NEAR COLUMBIA PRESBYTERIAN HOSP Students/Visitors,10408240901,verified,Juliana,Manhattan,Washington Heights,40.84039,-73.93954,United States,US,True,flexible,Private room,2011.0,$900 ,$180 ,30.0,2.0,5/19/2019,0.21,5.0,34.0,281.0,,
35576421,"Modern, light-filled apartment in Wiliamsburg",6853287861,unconfirmed,Marge,Brooklyn,Williamsburg,40.71427,-73.95405,United States,US,False,strict,Entire home/apt,2021.0,$691 ,$138 ,30.0,1.0,11/7/2021,0.21,3.0,1.0,0.0,,
55921496,"Spacious, Cozy, ENTIRE One Bedroom Apartment",68300117692,unconfirmed,Irina,Brooklyn,Sunset Park,40.63902,-74.01837,United States,US,True,flexible,Entire home/apt,2014.0,$138 ,$28 ,28.0,4.0,5/31/2019,0.59,5.0,1.0,219.0,,
40929312,Huge Studio! Prime Harlem! Clean!,94394909256,unconfirmed,Lyuba,Manhattan,Harlem,40.82987,-73.94625,United States,US,False,moderate,Entire home/apt,2008.0,"$1,119 ",$224 ,15.0,2.0,10/12/2015,0.04,2.0,1.0,0.0,,
26726365,Room in queens,58154154964,verified,Ken,Queens,Springfield Gardens,40.66292,-73.76242,United States,US,False,strict,Private room,2009.0,"$1,029 ",$206 ,1.0,5.0,7/7/2019,4.29,5.0,6.0,365.0,"- One of the bedroom closets is not accessible to guests - Please be mindful of the neighbors, quiet time after 10PM  - Check-out time is at 11AM on the day of your departure.  - If you're going to smoke outside, please clean up after yourself and do not throw cigarette butts on the ground - The refrigerator and cabinets are available for your use but please do not take food items unless explicitly permitted",
2759859,"14 min to Union Square, Manhattan-Sunny Modern Rm",41110391685,unconfirmed,Erica And Jorel,Brooklyn,Bushwick,40.70505,-73.92281,United States,US,True,moderate,Private room,2005.0,$121 ,$24 ,1.0,238.0,5/12/2019,3.46,1.0,3.0,36.0,,
40794551,Sapphire Suite,64204276743,verified,Luke,Manhattan,Harlem,40.83107,-73.9486,United States,US,False,strict,Private room,2017.0,$645 ,$129 ,3.0,6.0,6/21/2019,0.33,3.0,1.0,82.0,,
24419961,The Inspired Artist,68510819589,verified,Elise,Brooklyn,Bushwick,40.7006,-73.93018,United States,US,False,flexible,Private room,2012.0,"$1,162 ",$232 ,1.0,6.0,5/10/2019,1.58,2.0,1.0,0.0,"NO PETS!  NO SMOKING ON PREMISES!  NO PARTY! A printed house rule will be provided. Please be respectful to others when all rooms are booked. 10 AM Check-out and Check-in is between 12 PM (noon) - 3 PM.   Late check in after 8 pm is $50, lock out is $50. Respect yourself, Respect others, clean up after yourself.  No Smoking/drinking in apt.  Thank You! Location Rules: The ""Exact Address Location Is Not Disclosed For Security Reasons"" And Is Given Out 24 Hours Prior to Check-in.  If This Is a Problem for You, Please STOP Here And Contact Other Hosts for Your Stay.   This Is a Part Of My House Rules.",
27024607,"Cozy/Comfortable/Clean, 3 Bedroom/2 Bathroom",89141977095,verified,Oriana,Manhattan,Kips Bay,40.74293,-73.97923,United States,US,False,strict,Entire home/apt,2015.0,$95 ,$19 ,2.0,0.0,,,4.0,1.0,267.0,Please be gentle with the furniture and appliances. Absolutely no smoking allowed please.,
50369776,Sunny studio loft in Brooklyn,90212846126,verified,Michelle,Brooklyn,Williamsburg,40.71783,-73.94104,United States,US,False,moderate,Entire home/apt,2005.0,$882 ,$176 ,3.0,12.0,5/27/2019,0.93,3.0,1.0,0.0,"At La Casita we expect our guests to be respectful of our space and the other people staying here. If you need anything or have any concerns, please communicate them with myself or my roommate Monica.  We love to host people from all over the world and look forward to sharing our space with you.",
1556398,Family friendly Williamsburg Apt for Vacation!,53375368645,unconfirmed,Andrews,Brooklyn,Williamsburg,40.71121,-73.94669,United States,US,True,strict,Entire home/apt,2021.0,$855 ,$171 ,3.0,7.0,10/22/2016,0.08,3.0,1.0,52.0,"There is no smoking and no pets allowed in the apartment. Please leave the apartment as you found it (dishes in the dishwasher, living room & kitchen tidy)",
44476183,URBAN LUXURY 2BR DUPLEX~24/7 DOORMAN/GYM~SUTTON PL,59047531083,verified,Ruchi,Manhattan,Midtown,40.75802,-73.96125,United States,US,False,strict,Entire home/apt,2016.0,$440 ,$88 ,90.0,0.0,,,5.0,49.0,364.0,Quietly please.  I am on the top floor and have people living in the condo below me.  Thanks!!,
36027097,Large junior 1 bedroom  suite in Midtown Manhattan,79070004664,unconfirmed,Stanley,Manhattan,Murray Hill,40.74926,-73.97643,United States,US,False,strict,Entire home/apt,2022.0,$463 ,$93 ,30.0,3.0,10/4/2021,0.06,5.0,83.0,364.0,,
24257584,Thanksgiving - New York City (A144),39226265211,verified,William,Manhattan,Midtown,40.75166,-73.97323,United States,US,False,strict,Entire home/apt,2010.0,$266 ,$53 ,1.0,0.0,,,3.0,4.0,3.0,This listing is located in a residential area and so all the regular rules of living in a residential area apply.  Please be kind to the neighbors - we know and love them!  Please keep BBQs/outside activity to a minimum after 9 or 10PM.,
56067855,Beautiful Bedroom In the Heart of Harlem,25766890067,unconfirmed,Sonia,Manhattan,Harlem,40.8091,-73.94241,United States,US,True,moderate,Private room,2010.0,$877 ,$175 ,1.0,3.0,8/19/2017,0.1,4.0,3.0,0.0,,
24037769,Brooklyn home,10113528513,verified,Sa,Brooklyn,Bensonhurst,40.61268,-73.98857,United States,US,False,moderate,Entire home/apt,2008.0,"$1,078 ",$216 ,30.0,0.0,,,4.0,1.0,312.0,,
12054516,Cozy room in Hamilton Heights,27907654494,unconfirmed,Paloma,Manhattan,Harlem,40.82204,-73.94517,United States,US,False,flexible,Private room,2006.0,"$1,153 ",$231 ,5.0,4.0,9/22/2018,0.22,4.0,1.0,0.0,"House Rules 1. All bookings made at least a week before check in are fully refundable if cancelled within 24 hours of booking. After this, you will receive a 50% refund if you cancel at least 7 days before the start of your trip. 2. Check-in time is any time after 4 pm local time. If the unit is ready earlier, we’ll let you know. Check-out is normally 11 am local time, but we’d be happy to extend it as long as we don’t have a cleaning scheduled. Just let us know.  3. All bookings require a security deposit of at least $300. 4. For security measures we require all guests to provide proof of identification through ID verification on our own website. In order to check in, we'll need a photo of your ID.  5. Don’t let $300 go up in smoke. There's no smoking allowed in any Flatbook and a $300 fine for breaking this rule.  6. Unfortunately we don’t allow pets in most of our apartments. 7. Unless you’re staying in one of our specialty apartments, we don’t allow parties or excessive noise. 8. I",
27608941,Very Large/Spacious Private Bedroom in Manhattan,29952047005,unconfirmed,Jona,Manhattan,Upper East Side,40.78269,-73.95452,United States,US,True,moderate,Private room,2009.0,$732 ,$146 ,2.0,0.0,,,2.0,1.0,30.0,NO SMOKING!  NO PARTIES!,
22070476,Private Room in Charming TriBeCa Loft,16344693268,unconfirmed,Kristen,Manhattan,Tribeca,40.72018,-74.00451,United States,US,True,flexible,Private room,2009.0,$590 ,$118 ,30.0,2.0,12/12/2018,0.26,2.0,1.0,0.0,"Please remember that this is a residential building. The building rules, apartment occupancy restrictions and the year-round tenants must be respected.",
9883425,Simple Luxury in Columbus Circle,42577438996,unconfirmed,Katie,Manhattan,Hell's Kitchen,40.76814,-73.98476,United States,US,True,strict,Entire home/apt,2010.0,$441 ,$88 ,2.0,2.0,8/21/2016,0.06,3.0,1.0,353.0,,
28810193,Private Entrance 2 Bedroom Apt—Amazing Location!!!,38579911038,verified,Micah,Brooklyn,Clinton Hill,40.68466,-73.96635,United States,US,False,flexible,Entire home/apt,2021.0,$821 ,$164 ,7.0,71.0,2/28/2022,2.24,3.0,1.0,313.0,,
54305466,Queen Bedroom with Private roof top,48874958858,unconfirmed,Tamiris,Brooklyn,Williamsburg,40.71787,-73.94171,United States,US,True,moderate,Private room,2014.0,$139 ,$28 ,2.0,4.0,6/1/2019,1.5,5.0,2.0,66.0,"No smoking in the apartment, in the building or outside of the building.  We ask that you be quiet and respectful of our neighbors.",
27948053,"Luxury large studio in Chelsea, at the Highline!",38145337191,verified,Andrea,Manhattan,Chelsea,40.74954,-74.00466,United States,US,True,flexible,Entire home/apt,2003.0,$348 ,$70 ,7.0,0.0,,,5.0,1.0,20.0,,
36408184,Spacious Place in Brooklyn New York,49006992547,unconfirmed,Young,Brooklyn,Bedford-Stuyvesant,40.67986,-73.91107,United States,US,False,strict,Entire home/apt,2006.0,$416 ,$83 ,30.0,39.0,9/1/2021,0.58,5.0,1.0,365.0,,
20794111,Amazing Soho Apartment,544412318,unconfirmed,Cathal,Manhattan,SoHo,40.72615,-74.00325,United States,US,False,strict,Entire home/apt,2014.0,"$1,195 ",$239 ,4.0,1.0,9/16/2018,0.1,2.0,1.0,7.0,"- Please be mindful of the neighbors, quiet time after 10PM  - Check-out time is at 11AM on the day of your departure.  - If you're going to smoke outside, please clean up after yourself and do not throw cigarette butts on the ground - The refrigerator and cabinets are available for your use but please do not take food items unless explicitly permitted",
40003657,Cozy 2 BR apartment in Queens,34565899612,unconfirmed,Verena,Queens,Richmond Hill,40.69414,-73.82538,United States,US,False,flexible,Entire home/apt,2022.0,$163 ,$33 ,30.0,33.0,12/8/2017,0.46,4.0,3.0,298.0,,
23014909,manhattan 127 st and convent ave room 2,39318980918,unconfirmed,Eliahu,Manhattan,Harlem,40.81399,-73.95229,United States,US,False,flexible,Private room,2013.0,$308 ,$62 ,2.0,0.0,,,5.0,11.0,365.0,"In the kitchen the primary thing would be to wash your own dishes and clean up after yourself. We don't usually use shoes in the house, we can provide you with slippers or you might want to bring some. Its not a problem if you have to use orthopedic shoes. The bathroom is clean and we want folks to hang up your towels,either in your room or in the bathroom, and not leave the floor wet. We are not a loud house at night. Alcohol is fine so long as you aren't bent on getting drunk. And please no smoking inside, we have plenty of space outdoors for that. If you are here by yourselves for more than 3-4 days we may ask you to water the house plants. We ask that you recycle all pertinent trash and compost your food scraps, if you're not familiar with that we'll be happy to show you our system. No outdoor fires allowed if we are not present. Check in time is best at 3 PM and check out is at noon.",
31460129,Sweet Sunny Apt in prime Park Slope  Location,652208764,verified,Jo-Ann,Brooklyn,Park Slope,40.67441,-73.98326,United States,US,False,moderate,Entire home/apt,2014.0,$475 ,$95 ,30.0,33.0,2/7/2022,1.01,3.0,1.0,203.0,,
26209965,Sunset House,83810581973,verified,睿,Brooklyn,Sunset Park,40.64943,-74.01018,United States,US,False,flexible,Private room,2014.0,$95 ,$19 ,15.0,1.0,7/1/2019,1.0,3.0,1.0,0.0,Quiet hours are 10PM to 8AM. No Smoking no pets,
21025525,Cozy MasterBed Room Suite w/Jacuzzi Tub,42892558741,verified,Steven,Queens,Bayswater,40.60845,-73.75861,United States,US,False,strict,Private room,2010.0,$945 ,$189 ,1.0,9.0,6/12/2019,1.13,3.0,1.0,84.0,1. No parties. 2. Respect the neighbors. Noise level needs to stay low. 3. Keep feet on the porch when outside. 4. Clean any dishes you use. 5. No smoking ... even on porch. Not a good set up for children (0 - 13).,
31867726,Brand New Luxurious 2 BR,21079287345,verified,Stay With Vibe,Manhattan,Kips Bay,40.74227,-73.97859,United States,US,False,flexible,Entire home/apt,2012.0,$259 ,$52 ,30.0,13.0,1/31/2022,0.24,3.0,108.0,336.0,,
53698488,Comfy single private room at quiet area in Queens,78054276704,unconfirmed,Mala,Queens,Hollis,40.7152,-73.76171,United States,US,False,strict,Private room,2017.0,$265 ,$53 ,2.0,40.0,6/12/2019,2.96,3.0,2.0,84.0,- has to be clean!,
39816980,Cozy PRIVATE Studio Apartment UWS and Jazz Tour.,97080344515,unconfirmed,Sabrina,Manhattan,Upper West Side,40.7982,-73.96394,United States,US,True,moderate,Entire home/apt,2019.0,$749 ,$150 ,1.0,129.0,6/21/2019,1.76,4.0,1.0,281.0,,
47585080,Modern West Village Studio,79936955688,verified,Dee,Manhattan,West Village,40.73982,-74.00807,United States,US,True,moderate,Entire home/apt,2022.0,$780 ,$156 ,1.0,10.0,1/1/2017,0.25,3.0,1.0,364.0,"No smoking, no showering after 10pm, no shoes in the house we can provide slippers, no loud music please, no late check in after 9pm",
28246847,"✨Marvelous Room One Queen,One Full Bed and Balcony",76494788268,verified,Hotel Vetiver,Queens,Long Island City,40.75285,-73.93428,United States,US,True,flexible,Private room,2003.0,"$1,086 ",$217 ,1.0,0.0,,,4.0,8.0,359.0,,
31048113,Private Room in UWS (no kitchen),52865875656,verified,Mary,Manhattan,Morningside Heights,40.80623,-73.96329,United States,US,True,flexible,Private room,2012.0,$74 ,$15 ,2.0,64.0,2/13/2022,2.25,3.0,1.0,10.0,,
54053065,Another comfy Bushwick,37450314364,unconfirmed,Hupeto,Brooklyn,Bushwick,40.68725,-73.91623,United States,US,False,strict,Entire home/apt,2014.0,$763 ,$153 ,3.0,20.0,6/3/2019,1.59,4.0,3.0,309.0,"Pets are cool (just clean up after them!), smoking outside is allowed, and alcohol/coming home drunk is totally ok. If you drink our alcohol then please help replace it or chip in! Otherwise, we're pretty simple college guys who enjoy being social.",
14345456,NYC Bronx cozy studio for relaxation and quiet,7716622572,verified,Daisy,Bronx,Schuylerville,40.83855,-73.83167,United States,US,False,flexible,Entire home/apt,2012.0,$872 ,$174 ,3.0,1.0,7/8/2018,0.08,4.0,1.0,0.0,"NO SMOKING AND PETS ANYWHERE ON THE PROPERTY 1. Be respectful of the other tenants 2. When walking up the back stairwell into the unit, please minimize the amount of talking, door closing, and foot noise (these stairs border bedrooms) 3. If you use the grill, be sure to turn off the gas 4. Notify the owner of any discrepancies or things not functioning properly immediately 5. Please treat carpet stains promptly (or notify the owner) 6. Kindly turn off lights, air conditioners, and other electrical items when they aren't needed",
5054113,SPACIOUS 2 Bedroom Apt Near Upper East HOSPITALS,52001205355,unconfirmed,Juliana,Manhattan,Upper East Side,40.76235,-73.96005,United States,US,True,flexible,Entire home/apt,2014.0,$782 ,$156 ,30.0,9.0,12/7/2018,0.18,3.0,34.0,95.0,Smoking whatever is your preference is ok on the decks.  Please use ashtrays and dispose of debris.    Clean up after your pet but feel free to use the yard for bathroom activities.,
43116420,"Clean, Safe, Convenient, Comfy in Harlem NYC",98272735949,unconfirmed,Michael,Manhattan,East Harlem,40.80771,-73.94112,United States,US,False,flexible,Shared room,2018.0,$671 ,$134 ,1.0,7.0,12/17/2018,0.21,3.0,1.0,179.0,This is not a party building. It is quiet and peaceful. Anyone who is looking to party/smoke should look elsewhere.,
46947725,"NO XTRA FEES, 30 min To Grand Central:Pvt Entrance",4942251452,verified,Shera,Bronx,Wakefield,40.89811,-73.85543,United States,US,True,moderate,Private room,2008.0,$825 ,$165 ,1.0,156.0,6/30/2019,7.0,3.0,4.0,318.0,9 guest maximum.  Smoking isn't permitted and unfortunately neither are pets. Sorry.   Quiet hours 9p-8a.,
19648089,"COZY AND ELEGANCE PLACE NEAR JFK, LGA",83476207202,unconfirmed,Charlie,Queens,Woodhaven,40.69883,-73.85142,United States,US,True,flexible,Private room,2014.0,"$1,107 ",$221 ,2.0,8.0,5/10/2019,0.81,3.0,3.0,50.0,,
24530421,Large Chelsea Bedroom!,77375533779,verified,Lennon,Manhattan,Chelsea,40.74216,-73.99962,United States,US,False,flexible,Private room,2005.0,$564 ,$113 ,1.0,1.0,4/10/2019,0.33,5.0,2.0,0.0,"Please , no smoking,parties or noise that may disturb the neighbors.",
7248401,1 bedroom in large clean apt,53456551477,unconfirmed,Andrew,Brooklyn,Bushwick,40.70021,-73.92241,United States,US,False,moderate,Private room,2010.0,$869 ,$174 ,3.0,1.0,10/14/2015,0.02,4.0,1.0,28.0,"Please remember that this is a residential building. The building rules, apartment occupancy restrictions and the year-round tenants must be respected.  Parties, pets and smoking are not allowed under any circumstances and incur significant fees.",
33876994,Color Me - Interactive Private Room in Manhattan,12942765877,unconfirmed,Krista,Manhattan,Harlem,40.82571,-73.94884,United States,US,True,flexible,Private room,2004.0,$885 ,$177 ,3.0,20.0,1/1/2022,2.48,5.0,2.0,69.0,,
55461982,Brand New 3-Bedroom in Trendy L.E.S. #10296,28378431516,unconfirmed,Carol,Manhattan,Lower East Side,40.71935,-73.98361,United States,US,True,flexible,Entire home/apt,2014.0,$605 ,$121 ,2.0,33.0,7/5/2019,3.46,5.0,1.0,280.0,No guests/visitors Storage not provided Limited number of things allowed:one-two suitcases The house is quiet and we want to keep it this way.  Please pick up after yourself and please keep toilet bowl and shower clean Toilet must be closed when not in use It is requested to take shower and do shaving before bed and keep morning bathroom time to the minimum: others are waiting  Additional toilet/sink is on the first floor.  No disturbance: please walk slowly on the stairs Keep phone conversation inside your room without using computer speakers,
8226525,"Quiet, private room Upper West Side",14138566779,verified,Aidan,Manhattan,Upper West Side,40.77578,-73.97794,United States,US,False,flexible,Private room,2003.0,$447 ,$89 ,2.0,16.0,4/1/2018,0.47,4.0,1.0,95.0,,
20739433,Beautiful Studio Basement-35 minutes from the city,31580411360,verified,Karen,Queens,Jamaica,40.68033,-73.77753,United States,US,True,flexible,Entire home/apt,2018.0,$283 ,$57 ,1.0,45.0,7/5/2019,5.31,2.0,1.0,76.0,,
36601489,Amazing large 2BR in the UES  (MIN 30 DAYS),52854944059,unconfirmed,The Local Stay,Manhattan,Upper East Side,40.77429,-73.95157,United States,US,False,strict,Entire home/apt,2015.0,$429 ,$86 ,30.0,11.0,8/15/2021,0.18,3.0,48.0,341.0,,
36304904,"Clean, Vibrant and Spacious 2 Bedroom in City Hall",71940727999,verified,Perry,Manhattan,Financial District,40.71064,-74.00714,United States,US,False,flexible,Entire home/apt,2020.0,$798 ,$160 ,100.0,5.0,9/10/2021,0.18,2.0,2.0,1.0,,
6867314,Cherry Blossom Apartment,3090684749,unconfirmed,Alessandro,Queens,Astoria,40.75535,-73.91397,United States,US,True,moderate,Entire home/apt,2022.0,$896 ,$179 ,7.0,2.0,10/2/2015,0.04,3.0,1.0,84.0,"House Rules 1. Check-in is 4 pm local time. If the unit is ready earlier, we’ll let you know. Check-out is normally 11 am local time, but we’d be happy to extend it as long as we don’t have a cleaning scheduled. Just let us know.  2. All bookings require a security deposit of at least $300, which will be refunded within 7 days of your check-out. 3. For security measures we require all guests to provide proof of identification through ID verification on our own website. In order to check in we'll need a photo of your ID.  4. Our cancellation policy is as shown on our ad and defined by the site you are booking through.  5. Don’t let $300 go up in smoke. There's no smoking allowed in any Flatbook and a $300 fine for breaking this rule.  6. Unfortunately we don’t allow pets in any of our apartments. 7. Unless you’re staying in one of our specialty apartments, we don’t allow parties or excessive noise. 8. If we find the place very messy, we have to charge an extra $40 for every extra hour o",
47473515,North Williamsburg 2 BR Apt,70146128791,verified,Ashley,Brooklyn,Williamsburg,40.71874,-73.96077,United States,US,True,strict,Entire home/apt,2020.0,$522 ,$104 ,1.0,0.0,,,5.0,1.0,370.0,"1. No damage to the house or furniture 2. No Smoking, No Pets, No Drugs 3. No more sleepover people then you booked 4. Keep quiet after 11:00 PM 5. Be respectful to neighbors 6. Keep the kitchen clean after used 7. Keep the bathroom clean after used 8. Check-in: 3PM, Check-out: 11:00AM",
44921889,Cozy bedroom near Lincoln Center / UWS,27830576658,verified,David,Manhattan,Upper West Side,40.77317,-73.98895,United States,US,False,flexible,Private room,2012.0,$830 ,$166 ,1.0,0.0,,,3.0,1.0,0.0,"House Rules 1. Check-in is 4 pm local time. If the unit is ready earlier, we’ll let you know. Check-out is normally 11 am local time, but we’d be happy to extend it as long as we don’t have a cleaning scheduled. Just let us know.  2. All bookings require a security deposit of at least $300, which will be refunded within 7 days of your check-out. 3. For security measures we require all guests to provide proof of identification through ID verification on our own website. In order to check in we'll need a photo of your ID.  4. Our cancellation policy is as shown on our ad and defined by the site you are booking through.  5. Don’t let $300 go up in smoke. There's no smoking allowed in any Flatbook and a $300 fine for breaking this rule.  6. Unfortunately we don’t allow pets in any of our apartments. 7. Unless you’re staying in one of our specialty apartments, we don’t allow parties or excessive noise. 8. If we find the place very messy, we have to charge an extra $40 for every extra hour o",
27000859,Luxury Studio-Wall Street Awesome View & King Bed,49095694842,unconfirmed,Sang,Manhattan,Financial District,40.7061,-74.00936,United States,US,False,moderate,Entire home/apt,2010.0,$893 ,$179 ,1.0,1.0,6/20/2019,1.0,5.0,1.0,82.0,"• Check-in time is 3PM. This is a non-smoking apartment  No pets No loud music No Party 21+ guests only, unless accompanied by an adult who is 21+",
37813236,Spacious 1BR Apt in converted Pencil Factory,3383851280,verified,Sean,Brooklyn,Greenpoint,40.72964,-73.9592,United States,US,False,moderate,Entire home/apt,2016.0,$993 ,$199 ,30.0,27.0,10/14/2020,0.3,3.0,1.0,0.0,,
19063203,Historic New York Home,4588747494,verified,Cristina,Manhattan,NoHo,40.72842,-73.99289,United States,US,True,flexible,Private room,2003.0,$459 ,$92 ,7.0,10.0,6/9/2019,0.93,4.0,1.0,317.0,,
10120361,Amazing private Upper East loft!,76857168320,unconfirmed,Yuanyuan,Manhattan,Upper East Side,40.7626,-73.96031,United States,US,False,moderate,Entire home/apt,2021.0,$909 ,$182 ,3.0,57.0,6/20/2019,1.51,3.0,1.0,224.0,#NAME?,
24770119,Aloft Manhattan Downtown - Financial District,13895928689,verified,Yun,Manhattan,Financial District,40.70922,-74.00571,United States,US,False,moderate,Private room,2013.0,$775 ,$155 ,7.0,0.0,,,2.0,13.0,365.0,No smoking anywhere on the property. Quiet and no noise after 10 pm or before 6 am. No outdoor shoes to be worn in the house. Please respect our home as we would yours. No pets.,
4388592,Lovely Garden Apartment in Bklyn,4358123895,verified,Petal,Brooklyn,Flatlands,40.62598,-73.92509,United States,US,False,moderate,Entire home/apt,2012.0,"$1,072 ",$214 ,3.0,2.0,9/21/2016,0.05,2.0,1.0,283.0,Please do not block other cars.,
10956544,Cozy spot in the lovely East Village neighborhood,92268125610,unconfirmed,Seamus,Manhattan,East Village,40.72677,-73.98194,United States,US,False,moderate,Entire home/apt,2015.0,$288 ,$58 ,1.0,2.0,8/8/2016,0.06,1.0,1.0,0.0,"No smoking or drugs anywhere on property; no pets; no unauthorized guests. We expect guests to be respectful of our property and the neighborhood. Please remove shoes in downstairs entryway. Please confine eating to the kitchen area. Upon check out, please leave the apartment as close to how you found it as possible. Thank you!",
24521584,UWS - Pre-War Building- Large space,54983277006,unconfirmed,Sharone,Manhattan,Upper West Side,40.79288,-73.9723,United States,US,True,moderate,Private room,2005.0,$379 ,$76 ,1.0,7.0,7/1/2019,2.44,,1.0,178.0,,
10360612,Charming Oldschool NYC Apartment,19895404926,unconfirmed,Raymond,Manhattan,East Harlem,40.79659,-73.93501,United States,US,True,flexible,Private room,2008.0,$326 ,$65 ,3.0,0.0,,,5.0,1.0,85.0,"- No gatherings/parties for more than 12 people,  - Please keep noise down after 9 pm",
22926541,The Williamsburg Urban Haven,62398552822,unconfirmed,Dana,Brooklyn,Williamsburg,40.71408,-73.95501,United States,US,False,strict,Entire home/apt,2011.0,$482 ,$96 ,1.0,37.0,7/7/2019,5.66,5.0,1.0,234.0,No smoking or open flames permitted on the property. No drugs.  No pets. Notify host of extra people ($10 charge per night per extra person).,
50907716,Great Duplex in Crown Heights,8265056063,unconfirmed,Tania,Brooklyn,Prospect-Lefferts Gardens,40.66075,-73.94549,United States,US,False,strict,Entire home/apt,2004.0,"$1,141 ",$228 ,3.0,0.0,,,2.0,1.0,0.0,No shoes inside the house,
41395453,"Great place for 8, 30 min to Manhattan",52300905115,verified,Alexander M,Brooklyn,Bensonhurst,40.60859,-73.99331,United States,US,False,moderate,Entire home/apt,2009.0,$752 ,$150 ,30.0,19.0,7/15/2018,1.17,5.0,2.0,179.0,,
40568108,Light Filled Studio Apartment,21550337381,verified,Jennifer,Manhattan,Inwood,40.86464,-73.92768,United States,US,False,strict,Entire home/apt,2007.0,$562 ,$112 ,14.0,7.0,9/8/2018,0.15,5.0,1.0,21.0,,
43017006,Private Room in Chelsea 3 BR,88725512772,verified,Zoë,Manhattan,Chelsea,40.74063,-73.99843,United States,US,True,strict,Private room,2011.0,$590 ,$118 ,5.0,2.0,10/29/2016,0.06,2.0,1.0,0.0,No Pets. No Smoking. ,
52314977,Private room in Upper West Side,25890628171,verified,Jeta,Manhattan,Upper West Side,40.80026,-73.96425,United States,US,True,flexible,Private room,2008.0,$985 ,$197 ,2.0,25.0,10/22/2018,1.48,3.0,1.0,0.0,ABSOLUTELY NO SMOKING.,
42798295,"Luxury, Location, and Convenience - **RARE FIND**",91308701790,verified,Monica,Manhattan,Hell's Kitchen,40.76395,-73.99075,United States,US,True,flexible,Entire home/apt,2012.0,$349 ,$70 ,2.0,5.0,6/21/2019,3.13,2.0,1.0,294.0,,
30268265,4BR modern home with garden in art live/work bldng,34662806900,unconfirmed,Nico,Brooklyn,Bedford-Stuyvesant,40.6827,-73.91899,United States,US,False,moderate,Entire home/apt,2016.0,"$1,173 ",$235 ,2.0,8.0,2/20/2022,2.45,5.0,3.0,303.0,,
38046859,Quiet pad,20219279835,unconfirmed,Adrian,Brooklyn,East New York,40.65613,-73.87682,United States,US,False,flexible,Private room,2010.0,$968 ,$194 ,7.0,1.0,7/30/2020,0.05,2.0,2.0,364.0,,
51479347,Beautiful 2BR with Private Rooftop Deck LES,76112946811,verified,Jackie,Manhattan,Lower East Side,40.71306,-73.98715,United States,US,True,strict,Entire home/apt,2012.0,$242 ,$48 ,1.0,67.0,6/23/2019,2.46,5.0,1.0,185.0,You may come and go as you please.  No smoking is allowed in the house.,
29231046,Zen private room in NYC near Manhattan LGA JFK❤️,59755070691,unconfirmed,Stella,Queens,Long Island City,40.75577,-73.92812,United States,US,False,flexible,Private room,2012.0,$195 ,$39 ,1.0,35.0,2/27/2022,4.43,5.0,5.0,60.0,,
27212389,⍟Times Square | The Feeling of Home in Manhattan⍟,16850866075,verified,Laura,Manhattan,Midtown,40.7509,-73.98557,United States,US,False,flexible,Entire home/apt,2006.0,$600 ,$120 ,1.0,0.0,,,3.0,1.0,65.0,"Unlike most other Airbnb listings, what we do here is long-term rentals by the year, or by the semester and we can welcome compatible short-term guests. We try to keep the atmosphere conducive to studying and resting and a couple of house-rules are in place to this end.  1. Non-smoker preferred.  2. No loud music or TV etc.  3. Only for one person (no couples, no visitors). We seldom have visitors, let alone overnight guests. We know this will be a major turn-off to many people, but we believe we can find a like-minded roommate who can have fun outside the house.  4. If you re not sure about your check-out date, you can reserve the minimum days and extend your stay at a discounted rate.  5. Check-in time is flexible, but it has to be coordinated at least 24 hours ahead. On arrival, a short registration process with a picture ID is needed in exchange for keys and wifi access.  6. Inside the apartment, we take off our outside shoes. So if you bring your own flip-flops, slippers or some k",
46659425,Renovated 3 BED 2 BATH Williamsburg Townhouse APT,19254148911,unconfirmed,Sung Ae,Brooklyn,Williamsburg,40.71041,-73.9663,United States,US,False,moderate,Entire home/apt,2004.0,$866 ,$173 ,2.0,34.0,6/23/2019,1.55,4.0,1.0,239.0,#NAME?,
25826669,Are You Ready for Central Park State of Mind?,29626403300,unconfirmed,Park Lane,Manhattan,Midtown,40.76425,-73.97642,United States,US,False,strict,Private room,2009.0,$522 ,$104 ,1.0,0.0,,,4.0,14.0,343.0,#NAME?,
36103315,Landmark Brownstone Sunny  3 Rooms,26167422826,unconfirmed,Michael,Manhattan,Washington Heights,40.83498,-73.9393,United States,US,True,moderate,Entire home/apt,2005.0,$947 ,$189 ,180.0,9.0,9/30/2021,0.1,4.0,20.0,247.0,,
18680459,Maurice’s Penthouse,70728716971,verified,Maurice,Brooklyn,Crown Heights,40.67604,-73.95071,United States,US,False,flexible,Entire home/apt,2022.0,$776 ,$155 ,3.0,27.0,7/3/2019,2.09,2.0,3.0,288.0,,
17476997,Two Rooms-Prime Manhattan Location steps to subway,94856098922,unconfirmed,Kevin,Manhattan,East Harlem,40.79846,-73.94239,United States,US,True,strict,Private room,2019.0,"$1,062 ",$212 ,1.0,63.0,6/22/2019,3.74,4.0,1.0,12.0,"Please be quiet, kind and respectful. This building has both renters and many home occupants, it's a great place to make it your home for a stay! Please be mindful of other people on the building, and keep all questions to me, your host!",
13283936,New bedroom in a 2 bedroom apartment. Super nice.,43821462646,verified,Gf,Brooklyn,East Flatbush,40.65694,-73.92728,United States,US,True,strict,Private room,2020.0,$717 ,$143 ,30.0,13.0,4/7/2018,0.48,4.0,3.0,37.0,,
16735811,Quirky East Williamsburg/Bushwick Artist Duplex,51607551086,unconfirmed,Janique,Brooklyn,Williamsburg,40.70471,-73.94151,United States,US,True,flexible,Private room,2008.0,$821 ,$164 ,4.0,7.0,10/3/2018,0.37,2.0,1.0,0.0,"I respectfull ask that you treat my home as you would a friend's home.  My house rules are just common sense and courtesy. 1.  No loud music. 2. No parties. 3. No removal of items from the apartment unless expressly allowed by the host. 5.  Apartment door must be kept locked at all times.  4.  Security deposit shall be claimed in full in the event of any of the following:   a. Damaged or soiled sheets, to the extent that they require replacement.    b. Theft of items kept on and about the premises.    c. Unreturned keys.    d. Damage to the apartment or any part or item within and without the premises.    e. The presence of pets in the apartment, due to intent or negligence on the part of the guest and their party.    d. The presence of illicit or illegal substances, or illicit or illegal activities, on or about the premises     f.  Failure to vacate the premises by the agreed check-out time",
37424969,Amazing private room/Central park,27263334103,unconfirmed,Sergii & Vlada,Manhattan,Harlem,40.8029,-73.9559,United States,US,True,strict,Private room,2007.0,$221 ,$44 ,30.0,1.0,3/5/2021,0.08,2.0,9.0,287.0,,
11673981,Honey and milk - A creative studio apartment.,67813644508,unconfirmed,Georges,Manhattan,Hell's Kitchen,40.76043,-73.995,United States,US,True,flexible,Private room,2012.0,"$1,098 ",$220 ,3.0,94.0,6/24/2019,2.83,4.0,1.0,26.0,"The three main lights of the apartment are on the right of the front entrance.  The far light is for the bed area, the middle one (the black tab you have to flick up and down) is for the main area, and the near switch is for the light right over you as you step in.  The light in the bathroom is by the storage unit.  The light in the kitchen is to your left right as you walk into it.",
24323308,"Soulful, Artistic Space in a Brooklyn Townhouse",21996724084,unconfirmed,Todd,Brooklyn,Park Slope,40.67687,-73.98171,United States,US,False,strict,Entire home/apt,2019.0,$420 ,$84 ,4.0,9.0,7/1/2019,2.33,4.0,1.0,227.0,,
53695727,Posh 1BR in Midtown East by Sonder,74734459625,verified,Sonder,Manhattan,Murray Hill,40.74454,-73.97339,United States,US,True,strict,Entire home/apt,2017.0,$193 ,$39 ,29.0,1.0,7/12/2018,0.08,2.0,96.0,365.0,smoking outside no pets quiet friendly people preferred,
1396783,Landmark 2 Bedroom West Village NYC,340758042,verified,Scott,Manhattan,West Village,40.73312,-74.0042,United States,US,True,strict,Entire home/apt,2006.0,$640 ,$128 ,4.0,153.0,6/25/2019,1.66,5.0,4.0,254.0,#NAME?,
26124358,Room in 3-BR NY Apt near Central Park,20257012190,verified,Thelma,Manhattan,Harlem,40.80015,-73.95387,United States,US,True,moderate,Private room,2009.0,$736 ,$147 ,14.0,1.0,5/17/2019,0.57,2.0,1.0,0.0,Please treat my home like your own and as you would expect me to treat yours.  Please smoke outside on the porch.  I do not allow pets.,
15426307,SUPER LUXURY FOR 2 IN FINANCIAL DISTRICT,2971960773,verified,,Manhattan,Financial District,40.70849,-74.01486,United States,US,True,flexible,Entire home/apt,2018.0,$206 ,$41 ,30.0,0.0,,,5.0,33.0,329.0,#NAME?,
43637239,Luxury doorman 1br in West Village,17811641599,unconfirmed,Shaun,Manhattan,West Village,40.73596,-74.00927,United States,US,False,flexible,Entire home/apt,2022.0,$678 ,$136 ,4.0,0.0,,,5.0,1.0,0.0,Garbage and recycling is on the same floor as unit if more refuse is created than can be stored. There is a door that is labeled as such and there are bins for recycling and a garbage shute for tied plastic garbage bags.,
4373680,Sunny Lower East Side Penthouse,11547323385,verified,Ryan,Manhattan,Lower East Side,40.71777,-73.99011,United States,US,True,flexible,Entire home/apt,2009.0,$555 ,$111 ,4.0,0.0,,,4.0,1.0,164.0,No Tobacco,
5419736,Bright Studio Perfect for the Wknd!,91318804641,verified,Sara,Manhattan,Upper East Side,40.78073,-73.94976,United States,US,True,strict,Entire home/apt,2004.0,$896 ,$179 ,1.0,4.0,12/7/2015,0.08,1.0,1.0,160.0,"Family friendly, no smoking please. Please bring trash outside, clean dishes before departure. Please be courteous to our neighbors no parties or pets are allowed.",
13565056,Sunny Brooklyn Limestone,40286569854,unconfirmed,Antoinette,Brooklyn,Flatbush,40.64246,-73.9538,United States,US,False,moderate,Entire home/apt,2006.0,$686 ,$137 ,7.0,3.0,2/18/2019,0.47,1.0,1.0,0.0,NO Smoking. Pets allowed with non-refundable pet fee.,
49392757,2 Bedroom Duplex with large backyard,32229761643,unconfirmed,William,Brooklyn,Williamsburg,40.7121,-73.93705,United States,US,False,strict,Entire home/apt,2014.0,$362 ,$72 ,4.0,1.0,8/7/2016,0.03,2.0,1.0,0.0,"Please, No shoes allowed. There's a mat for them, just inside the door.",
19904908,Bright cozy private room in stylish Brooklyn apt,73291586219,unconfirmed,Sarah,Brooklyn,Flatbush,40.64228,-73.95204,United States,US,True,strict,Private room,2014.0,$973 ,$195 ,2.0,4.0,9/28/2018,0.37,2.0,6.0,260.0,"No smoking permitted, no pets.",
54853900,Beautiful Apartment in Brooklyn Heights,15759643404,unconfirmed,Jasna,Brooklyn,Brooklyn Heights,40.6987,-73.99275,United States,US,True,flexible,Entire home/apt,2013.0,$439 ,$88 ,1.0,12.0,6/26/2019,1.16,5.0,1.0,6.0,"Please remember that this is a residential building. The building rules, apartment occupancy restrictions and the year-round tenants must be respected.",
20694145,BEAUTIFUL 2 BEDROOM APARTMENT,86986079574,verified,Ramon,Manhattan,Hell's Kitchen,40.76125,-73.99389,United States,US,True,strict,Entire home/apt,2020.0,$282 ,$56 ,3.0,41.0,7/1/2019,4.29,4.0,1.0,74.0,- No smoking inside the apartment - Checkout time is 11:00 am (a later time can be accommodated if it is available - but please ask ahead of time) - No Loud Music or Loitering outside the entrance after 10:00pm,
54273433,Spacious Bushwick Bedroom!,44930891116,unconfirmed,Alex,Brooklyn,Bushwick,40.69505,-73.92968,United States,US,True,flexible,Private room,2020.0,$753 ,$151 ,10.0,4.0,5/11/2019,0.35,5.0,1.0,13.0,,
22668065,"Bright, warm & wonderful bedroom in Greenpoint",8709924147,unconfirmed,Tasha,Brooklyn,Greenpoint,40.72386,-73.9506,United States,US,False,flexible,Private room,2022.0,$593 ,$119 ,2.0,1.0,5/19/2019,0.59,4.0,1.0,63.0,"We are looking for quiet and respectful guests given that we have neighbors with young children. As a result, I would ask to please keep noise levels in the house at a minimum between 9pm and 8am (you can still cook and watch TV, etc. just don't go around moving furniture :)",
55612760,"Small, Cozy room in Central Harlem neighborhood",57960763505,unconfirmed,Omar,Manhattan,Harlem,40.82306,-73.94046,United States,US,True,flexible,Private room,2018.0,"$1,041 ",$208 ,1.0,46.0,6/9/2019,5.54,5.0,1.0,66.0,"Dear Guests, Welcome to 62 Cornwall St! I hope you will enjoy your stay in Boston. General -No Smoking -You may use the washer in the laundry room. The turn-on button of dryer is broken, so it is hard to turn it on, but it is working. I usually hang clothes on hangers, they dry fairly quickly that way. -You may use the piano if you play piano.  -Please be extra careful with the floor downstairs. It is very easily scratched! -You may use the grill, but be extra careful! After use, turn off the gas on the propane tank, not only on the grill! -Please  refrain from loud talking/partying on the patio after 10 p.m.  Check  in/out: -The code for the lockbox is 1685  -When you arrive, please remove the keybox. -When you leave, place the key on the kitchen table, do not put it back in the keybox. -Please check out by 11 a.m. on your last day. The cleaners will arrive shortly after that, to prepare for the next guests potentially arriving at 3 p.m.  Internet: -WIFI: (PHONE NUMBER HIDDEN)  -WEP: ",
10561097,Bright and spacious 1 BR,84489857716,verified,Nina,Manhattan,Murray Hill,40.74327,-73.97202,United States,US,False,moderate,Entire home/apt,2019.0,"$1,111 ",$222 ,5.0,2.0,7/28/2016,0.05,2.0,1.0,0.0,"We have ample off-street parking but if you have a car let us know and we will be in touch with you about parking. Please be careful not to drive or walk in the driveway for 233 Savin Hill Avenue. Check in time is 2 PM, check out time is 10 AM.  Guests who arrive early can drop off their luggage after 10 AM. We are unable to accommodate arrivals earlier than 10 AM.  Guests who need to stay after the check out time are welcome to use the common area on the first floor for luggage storage. NO SMOKING in the house or anywhere on the property. No Pets.",
45540465,cool three bedroom on 111th street,10862547997,unconfirmed,Alex,Manhattan,East Harlem,40.79475,-73.94247,United States,US,True,strict,Entire home/apt,2014.0,$921 ,$184 ,4.0,67.0,6/30/2019,2.7,5.0,3.0,242.0,,
43257809,Light filled Bowery 1BD apartment,637599432,verified,Clara,Manhattan,Chinatown,40.71809,-73.99655,United States,US,False,moderate,Private room,2005.0,$925 ,$185 ,3.0,0.0,,,4.0,1.0,0.0,"Please remember that this is a residential building. The building rules, apartment occupancy restrictions and the year-round tenants must be respected.  Parties, pets and smoking are not allowed under any circumstances and incur significant fees.",
42707718,Quiet Studio with Balcony near Central Park,45314512111,verified,Brigitte,Manhattan,Upper West Side,40.78687,-73.97428,United States,US,True,flexible,Entire home/apt,2010.0,$932 ,$186 ,2.0,1.0,5/26/2019,0.68,4.0,1.0,2.0,,
40230100,PRIME apartment in East Village!,73971926380,verified,Chara,Manhattan,East Village,40.73082,-73.98693,United States,US,True,moderate,Entire home/apt,2022.0,$776 ,$155 ,2.0,44.0,1/1/2018,0.64,4.0,2.0,0.0,,
53823308,Spacious and convenient Harlem Guest Room.,44881387111,verified,Crystal,Manhattan,Harlem,40.82823,-73.93925,United States,US,False,flexible,Private room,2014.0,$610 ,$122 ,5.0,17.0,6/30/2019,1.36,2.0,1.0,119.0,,
22752015,The Bronx's Oasis,24092890361,unconfirmed,Chantel,Bronx,Mount Hope,40.85055,-73.90189,United States,US,False,flexible,Entire home/apt,2020.0,$816 ,$163 ,2.0,25.0,7/4/2019,3.66,5.0,1.0,92.0,,
18577179,Sleek Studio in FiDi by Sonder,82855670814,verified,Sonder,Manhattan,Financial District,40.70571,-74.00833,United States,US,False,moderate,Entire home/apt,2018.0,$532 ,$106 ,29.0,1.0,5/18/2019,0.57,2.0,96.0,333.0,,
19300140,Room with AC - Cozy Manhattan Apt. —Central Park,86263754527,unconfirmed,Andreas & Bella,Manhattan,Upper East Side,40.76473,-73.95623,United States,US,False,strict,Private room,2003.0,$727 ,$145 ,2.0,45.0,6/13/2019,3.56,5.0,2.0,26.0,Shoes off apartment (slippers available to guests)  No smoking of any substance on the property  No parties Respectful  Friendly  Quiet  Leave things as they were found upon check-out,
32288579,UNTITLED at Freemans - Bowery King Studio 910,53867947888,unconfirmed,Karen,Manhattan,Nolita,40.7225,-73.99346,United States,US,True,moderate,Entire home/apt,2021.0,"$1,186 ",$237 ,2.0,16.0,1/23/2022,2.74,5.0,208.0,135.0,,
1772899,"Great room in 2BR, Bright + Cozy!",6496999695,verified,Evelina,Brooklyn,Crown Heights,40.66839,-73.96001,United States,US,False,moderate,Private room,2020.0,"$1,144 ",$229 ,2.0,0.0,,,3.0,1.0,103.0,Enjoy the marathon,
46851073,Affordable 2 Bedroom on the UES!!!,56606031529,verified,Zoe,Manhattan,Upper East Side,40.76644,-73.95486,United States,US,True,strict,Entire home/apt,2020.0,$793 ,$159 ,3.0,3.0,9/28/2017,0.13,2.0,1.0,0.0,No shoes on in the house. My home is 420 friendly yet no cigarettes. You will not have access to a key but you will be able to come and go freely.,
3264109,Budge private room F,58313324081,unconfirmed,Susan,Brooklyn,Borough Park,40.63081,-73.99638,United States,US,False,flexible,Private room,2008.0,$246 ,$49 ,1.0,60.0,4/1/2019,0.97,1.0,5.0,28.0,Please be honest and respectful. That's it!,
44977119,Sunny Private Room with patio access in the EV!,36016819540,unconfirmed,Meredith,Manhattan,East Village,40.72269,-73.98428,United States,US,True,moderate,Private room,2012.0,$69 ,$14 ,5.0,0.0,,,2.0,1.0,0.0,No Smoking No Pets,
31735726,Coozy Studio for one or two in Crown Heights,20503420328,verified,Clifton,Brooklyn,Crown Heights,40.67086,-73.94563,United States,US,True,strict,Entire home/apt,2004.0,$645 ,$129 ,2.0,340.0,2/2/2022,3.48,2.0,1.0,336.0,,
34327670,"Oasis, 15 min away from Manhattan",35913946807,verified,Johny,Brooklyn,Bedford-Stuyvesant,40.68656,-73.94428,,US,True,flexible,Entire home/apt,2012.0,$146 ,$29 ,30.0,1.0,12/26/2021,0.43,2.0,5.0,329.0,,
20635601,Brooklyn Apartment,44355271342,unconfirmed,Amparo,Brooklyn,Bedford-Stuyvesant,40.67841,-73.94477,United States,US,False,moderate,Private room,2011.0,$739 ,$148 ,6.0,1.0,10/1/2018,0.11,3.0,1.0,88.0,Please do not smoke and be respectful of other guests.,
34662916,"Charming, quiet and comfortable 1BR",26370140771,verified,Dana,Brooklyn,Bedford-Stuyvesant,40.6811,-73.93643,United States,US,False,strict,Entire home/apt,2013.0,$472 ,$94 ,30.0,161.0,12/18/2021,1.93,5.0,1.0,64.0,,
18043657,Chic Bohemian 1 br in the heart of West Village,85915055862,verified,Daniel,Manhattan,West Village,40.73417,-74.00604,United States,US,False,flexible,Entire home/apt,2007.0,"$1,070 ",$214 ,2.0,5.0,5/27/2019,0.63,2.0,1.0,0.0,,
23178943,Charming Private Room Near Central Park,55575719041,unconfirmed,Lugao,Manhattan,Upper West Side,40.79721,-73.96875,United States,US,True,moderate,Private room,2004.0,"$1,177 ",$235 ,2.0,6.0,5/12/2019,0.93,4.0,3.0,49.0,No smoking.   We do allow pets.,
36392720,Beautiful Apartment in NYC,85039823694,verified,Doris,Queens,Elmhurst,40.74554,-73.87677,United States,US,False,strict,Entire home/apt,2022.0,$961 ,$192 ,90.0,33.0,9/3/2021,0.76,5.0,1.0,363.0,,
50756938,Longer-term 2-bedroom in Nolita with terrace.,9006436948,unconfirmed,Steve,Manhattan,Nolita,40.72243,-73.996,United States,US,True,strict,Entire home/apt,2008.0,$236 ,$47 ,1.0,0.0,,,5.0,1.0,0.0,"Please remember that this is a residential building. The building rules, apartment occupancy restrictions and the year-round tenants must be respected.  Parties, pets and smoking are not allowed under any circumstances and incur significant fees.",
34182415,"Clean, private suite in historic Brooklyn home!",21188427087,verified,Jody,Brooklyn,East Flatbush,40.65104,-73.94982,United States,US,False,strict,Entire home/apt,2020.0,$337 ,$67 ,2.0,160.0,12/28/2021,2.86,2.0,1.0,97.0,,
28911264,Pad on the Parkway!,74046441763,verified,Mel,Brooklyn,Crown Heights,40.66917,-73.93637,United States,US,True,flexible,Entire home/apt,2016.0,$564 ,$113 ,1.0,9.0,2/28/2022,5.29,5.0,3.0,230.0,,
12305260,Large 1BR Apt In Upper Manhattan w/AC in Bedroom,26661587050,verified,Daniel,Manhattan,Washington Heights,40.84517,-73.93748,United States,US,True,moderate,Entire home/apt,2009.0,"$1,181 ",$236 ,4.0,2.0,7/25/2017,0.08,2.0,1.0,0.0,Welcome to my home. I hope you will treat it as you would your own.,
17441098,Prospect Park Pad - 1 minute from the subway!,29870095174,unconfirmed,Sonia,Brooklyn,Prospect-Lefferts Gardens,40.65681,-73.95931,United States,US,True,moderate,Entire home/apt,2014.0,$934 ,$187 ,31.0,4.0,5/20/2019,0.31,3.0,1.0,5.0,,
40912191,Cozy Apartment in BKLYN near Prospect Park!,94871848568,verified,Alicia And Zach,Brooklyn,Prospect-Lefferts Gardens,40.65798,-73.95985,United States,US,False,strict,Private room,2010.0,$407 ,$81 ,3.0,14.0,1/2/2017,0.31,3.0,1.0,0.0,,
7468769,"2 bedroom apt in Bushwick, Brooklyn",71154235979,verified,Harriet,Brooklyn,Bushwick,40.70246,-73.91756,United States,US,True,flexible,Entire home/apt,2014.0,$111 ,$22 ,5.0,0.0,,,1.0,1.0,144.0,"Absolutely no smoking and no pets.  The place is decorated with taste, please be respectful. I will leave the place as is and expect you to live here as you are in your own home.  I will leave instructions for Cable, Wireless and some of the funky kitchen equipments.  Please enjoy coffee in the morning, make yourself lunch or diner and use utensils. ",
6107350,1 BEDROOM PENTHOUSE W AMAZING VIEWS,43830123317,unconfirmed,Andrew,Queens,Long Island City,40.7419,-73.95738,United States,US,False,strict,Entire home/apt,2007.0,$249 ,$50 ,2.0,7.0,7/3/2016,0.14,2.0,1.0,264.0,"No smoking, pets or parties please. ",
23539594,Stay in the ❤️of Manhattan!,35053193896,unconfirmed,Melanie,Manhattan,Midtown,40.75979,-73.96463,United States,US,True,strict,Private room,2010.0,$487 ,$97 ,1.0,20.0,6/16/2019,4.29,3.0,1.0,7.0,,
29229389,Bed-Stuy Fly,78467120588,unconfirmed,Ana,Brooklyn,Bedford-Stuyvesant,40.69187,-73.93803,United States,US,False,flexible,Entire home/apt,2010.0,$694 ,$139 ,1.0,57.0,2/27/2022,6.73,5.0,3.0,340.0,,
16588899,Luxury Williamsburg 2-Story Apartment w/ Patio,23915646123,verified,Justin,Brooklyn,Williamsburg,40.71622,-73.94462,United States,US,True,strict,Entire home/apt,2004.0,$673 ,$135 ,2.0,22.0,6/12/2019,1.15,4.0,1.0,132.0,"We expect guests to be mindful of the neighbors, especially during evening hours.",
25883556,"Quiet, Top Floor Apt in West Village Townhouse",51482956471,unconfirmed,Amanda,Manhattan,West Village,40.73011,-74.00401,United States,US,True,strict,Entire home/apt,2003.0,"$1,091 ",$218 ,30.0,1.0,6/30/2019,1.0,3.0,2.0,179.0,No Smoking,
26814733,Beautiful huge studio blocks from Central Park!,28421739278,unconfirmed,Simon,Manhattan,Hell's Kitchen,40.7682,-73.98598,United States,US,True,flexible,Entire home/apt,2014.0,$532 ,$106 ,30.0,0.0,,,5.0,1.0,66.0,"All I ask is that you don't make too big a mess, don't smoke, don't break anything, and be respectful of my roommates/neighbors.",
5175067,1-Br Hell's Kitchen / Times Square,33326001840,verified,Steve,Manhattan,Hell's Kitchen,40.76561,-73.99439,United States,US,True,strict,Entire home/apt,2013.0,$966 ,$193 ,1.0,178.0,7/1/2019,3.43,3.0,1.0,375.0,Be respectful of house and neighbors on second and third floor. That's all we ask.,
48195371,Sunny light filled bedroom,40264108941,verified,Randy,Manhattan,East Harlem,40.80073,-73.94465,United States,US,True,strict,Private room,2021.0,$173 ,$35 ,3.0,89.0,6/5/2019,2.37,1.0,2.0,200.0,,
41654482,Entire Apartment in super convenient location,86231624512,unconfirmed,Alfredo,Brooklyn,Williamsburg,40.7109,-73.95916,United States,US,False,strict,Entire home/apt,2022.0,$539 ,$108 ,2.0,3.0,11/23/2018,0.21,5.0,2.0,0.0,,
53218540,Astoria- Boho style bedroom with skylight,49896950189,unconfirmed,Karina,Queens,Ditmars Steinway,40.77376,-73.90484,United States,US,False,strict,Private room,2007.0,$92 ,$18 ,2.0,17.0,6/24/2019,1.36,4.0,1.0,24.0,No cigarette smoking inside the house. Happy to have you on the porch or yard.  420 friendly.,
20217510,The Pit of Despair,37988909609,verified,Yianni,Manhattan,Upper East Side,40.78117,-73.95688,United States,US,True,flexible,Private room,2004.0,"$1,092 ",$218 ,1.0,3.0,3/15/2019,0.28,3.0,1.0,90.0,,
55343790,Luxury Manhattan Loft w Huge Private Back Yard,25731324849,verified,Selma,Manhattan,Gramercy,40.73449,-73.98473,United States,US,False,strict,Entire home/apt,2022.0,$298 ,$60 ,1.0,28.0,6/27/2019,2.75,5.0,1.0,25.0,,
43754327,Sunny new room C/ 30mins to Manhattan,72315908241,verified,Jason,Brooklyn,Sunset Park,40.64052,-74.01539,United States,US,True,strict,Private room,2020.0,$562 ,$112 ,1.0,10.0,6/10/2019,0.71,5.0,8.0,240.0,"Please remember that this is a residential building. The building rules, apartment occupancy restrictions and the year-round tenants must be respected.",
46098288,"Affordable, spacious room in Bed-Stuy",50907277295,verified,David,Brooklyn,Bedford-Stuyvesant,40.68824,-73.95383,United States,US,True,strict,Private room,2007.0,$727 ,$145 ,1.0,0.0,,,2.0,1.0,0.0,Keep noise down and have consideration for other guest.  No smoking on premises.,
33061246,Stylish gem with balcony in Williamsburg by river,41881251578,verified,Jenny,Brooklyn,Williamsburg,40.70999,-73.96735,United States,US,False,moderate,Entire home/apt,2003.0,$435 ,$87 ,30.0,6.0,1/5/2022,0.55,4.0,1.0,34.0,,
52015078,Queens Home with Private Bathroom and Balcony,32531108652,unconfirmed,Jose,Queens,Ditmars Steinway,40.77411,-73.90017,United States,US,True,strict,Private room,2006.0,$366 ,$73 ,1.0,0.0,,,4.0,1.0,0.0,,
45253821,Sunny 1BR Near Train (Greenpoint/Williamsburg),46390161045,unconfirmed,Max,Brooklyn,Greenpoint,40.72686,-73.95246,United States,US,True,flexible,Entire home/apt,2018.0,$785 ,$157 ,6.0,2.0,7/14/2017,0.08,2.0,1.0,0.0,This is a quiet condo association building from 10 p.m. to 6 a.m.  Please be quiet in the stairwell and remove shoes during the hours of 10 p.m. and 6 a.m.,
19047739,luxury house in queens,47803127166,verified,Jinfei,Queens,Briarwood,40.71017,-73.80965,United States,US,True,flexible,Private room,2017.0,$847 ,$169 ,2.0,30.0,6/23/2019,2.41,3.0,3.0,92.0,"1. No additional guests not part of the reservation in the building at all.  2. No Pets 3. No Smoking  4. No Children under 10. (The house is not child proof) 5. Remove your shoes 6. Check in is 3-11pm  7. Check out is 10am  *early check in or late check out must be arranged before the reservation starts and may not be accommodated* 8. The bathroom is a shared space, keep the sink clear, there is limited room for your bath products in the shower. 9. No Parties",
53119678,"East 12th street, Lux 1bd in Greenwich Village",50606612190,verified,Ken,Manhattan,East Village,40.73399,-73.99002,United States,US,False,strict,Entire home/apt,2022.0,$378 ,$76 ,30.0,1.0,11/5/2018,0.12,2.0,87.0,357.0,I would appreciate quest to show respect to the house,
31577769,Shoreham Hotel - Boutique Hotel Studio Close to Iconic Landmarks,87435342498,unconfirmed,Shoreham,Manhattan,Midtown,40.7635,-73.97536,United States,US,False,flexible,Entire home/apt,2015.0,$437 ,$87 ,1.0,5.0,2/6/2022,1.09,4.0,44.0,353.0,,
10759372,Pre-War 1 BR with Scenic Manhattan Views,47890550650,verified,Michael,Staten Island,St. George,40.64475,-74.07811,United States,US,False,moderate,Private room,2003.0,"$1,100 ",$220 ,1.0,0.0,,,3.0,1.0,0.0,You will see a piece of paper on my kitchen table about my house rules.  No parties please :),
